~Version Information
 VERS.                 2.0: 
 WRAP.                  NO: 
 END.                PETRA:GeoPLUS Corporation
~Well Information Block
#MNEM.UNIT       Data Type    Information
#---------    -------------   ---------------------------------
 STRT.F             37.0000:
 STOP.F           7042.5000:
 STEP.F              0.5000:
 NULL.              -999.25:
 COMP.                           : COMPANY
 FLD.       Weston-Jane Lew      : FIELD
 LOC.                            : LOCATION
 DATE.      02-JUL-2014          : DATE
 WELL.      4704105432           : Well Name
 LABL.      4704105432                       : Well Label
 APIN.      4704105432           : API Number
 UWI.       4704105432           : Unique Well Number
 NUMB.      33241                : Well Number
 OPER.      Dominion Exploration & Production : Operator Name
 LEAS.      W G Bennett          : Lease Name
~Parameter Block
#MNEM.UNIT           VALUE            Description
#---------    --------------------   ---------------------------------
 EKB.F                     1.0 : KB Elevation
~Curve Information Block
#MNEM.UNIT      API CODE      Curve Description
#---------    -------------   ---------------------------------
 DEPT.F                   00 000 00 00: Depth (MD)
 AT60.OHMM                00 001 00 00: Array Induction Two Foot Resistivity A60
 AT90.OHMM                00 002 00 00: Array Induction Two Foot Resistivity A90
 GR.GAPI                  00 003 00 00: Description
 HCAL.IN                  00 004 00 00: HRCC Cal. Caliper {F13.4}
 HCGR.GAPI                00 005 00 00: 
 HFK.CFCF                 00 006 00 00: HNGS Formation Potassium Concentration {
 HTHO.PPM                 00 007 00 00: HNGS Formation Thorium Concentration {F1
 HURA.PPM                 00 008 00 00: HNGS Formation Uranium Concentration {F1
 NPHI.CFCF                00 009 00 00: Thermal Neutron Porosity (Ratio Method)
 PEFZ.                    00 010 00 00: HRDD Standard Resolution Formation Photo
 PHID.PERC                00 011 00 00: Density Porosity
 RHOZ.G/C3                00 012 00 00: HRDD Standard Resolution Formation Densi
~A        DEPT        AT60        AT90          GR        HCAL        HCGR         HFK        HTHO        HURA        NPHI        PEFZ        PHID        RHOZ
# ...
      5162.500      23.401      23.503     155.634       7.820     -999.25     -999.25     -999.25     -999.25      -1.380       3.769      -0.032       2.765
      5163.000      21.651      21.437     160.161       7.820     -999.25     -999.25     -999.25     -999.25      -1.390       3.687      -0.023       2.750
      5163.500      20.390      20.376     161.293       7.842     -999.25     -999.25     -999.25     -999.25      -1.410       3.615      -0.022       2.748
      5164.000      20.737      20.465     160.161       7.842     -999.25     -999.25     -999.25     -999.25      -1.410       3.541      -0.025       2.753
      5164.500      20.491      20.633     168.651       7.842     -999.25     -999.25     -999.25     -999.25      -1.410       3.514      -0.021       2.746
      5165.000      19.758      20.049     169.216       7.820     -999.25     -999.25     -999.25     -999.25      -1.400       3.565      -0.007       2.721
      5165.500      18.978      19.291     165.821       7.820     -999.25     -999.25     -999.25     -999.25      -1.390       3.659      -0.003       2.715
      5166.000      18.667      18.964     164.123       7.865     -999.25     -999.25     -999.25     -999.25      -1.410       3.717      -0.013       2.732
      5166.500      19.422      19.488     168.651       7.820     -999.25     -999.25     -999.25     -999.25      -1.390       3.701      -0.025       2.752
      5167.000      20.676      20.497     161.576       7.820     -999.25     -999.25     -999.25     -999.25      -1.420       3.639      -0.029       2.759
      5167.500      20.655      20.289     160.444       7.820     -999.25     -999.25     -999.25     -999.25      -1.400       3.580      -0.023       2.750
      5168.000      21.069      20.113     166.670       7.842     -999.25     -999.25     -999.25     -999.25      -1.400       3.539      -0.023       2.750
      5168.500      22.114      21.203     178.554       7.888     -999.25     -999.25     -999.25     -999.25      -1.440       3.514      -0.018       2.740
      5169.000      26.871      25.487     179.686       7.956     -999.25     -999.25     -999.25     -999.25      -1.470       3.513      -0.012       2.730
      5169.500      24.507      24.087     159.313       7.899     -999.25     -999.25     -999.25     -999.25      -1.460       3.503      -0.001       2.712
      5170.000      21.715      21.470     146.579       7.820     -999.25     -999.25     -999.25     -999.25      -1.390       3.472      -0.003       2.715
      5170.500      22.341      22.586     149.974       7.854     -999.25     -999.25     -999.25     -999.25      -1.380       3.452      -0.004       2.716
      5171.000      22.071      21.796     164.689       7.865     -999.25     -999.25     -999.25     -999.25      -1.390       3.431      -0.008       2.723
      5171.500      21.198      21.522     167.519       7.820     -999.25     -999.25     -999.25     -999.25      -1.370       3.512      -0.001       2.712
      5172.000      20.776      20.764     169.782       7.820     -999.25     -999.25     -999.25     -999.25      -1.370       3.552      -0.001       2.713
      5172.500      21.594      21.452     166.387       7.865     -999.25     -999.25     -999.25     -999.25      -1.370       3.615       0.004       2.704
      5173.000      23.219      22.899     168.651       7.842     -999.25     -999.25     -999.25     -999.25      -1.380       3.661       0.006       2.699
      5173.500      26.712      25.805     160.727       7.865     -999.25     -999.25     -999.25     -999.25      -1.390       3.684       0.006       2.700
      5174.000      26.220      25.762     153.936       7.842     -999.25     -999.25     -999.25     -999.25      -1.380       3.685       0.007       2.698
      5174.500      26.245      25.438     151.389       7.842     -999.25     -999.25     -999.25     -999.25      -1.390       3.595       0.001       2.708
      5175.000      25.203      25.138     150.823       7.865     -999.25     -999.25     -999.25     -999.25      -1.410       3.547       0.005       2.702
      5175.500      25.297      28.057     145.164       7.934     -999.25     -999.25     -999.25     -999.25      -1.450       3.528       0.009       2.695
      5176.000      29.237      31.380     137.524       7.956     -999.25     -999.25     -999.25     -999.25      -1.460       3.534       0.013       2.687
      5176.500      32.238      34.419     142.900       7.888     -999.25     -999.25     -999.25     -999.25      -1.440       3.502       0.011       2.691
      5177.000      28.598      31.508     144.598       7.820     -999.25     -999.25     -999.25     -999.25      -1.420       3.438       0.009       2.694
      5177.500      30.202      33.248     149.126       7.865     -999.25     -999.25     -999.25     -999.25      -1.440       3.402       0.015       2.684
      5178.000      37.599      39.737     140.354       7.865     -999.25     -999.25     -999.25     -999.25      -1.470       3.420       0.023       2.670
      5178.500      38.500      39.075     146.579       7.820     -999.25     -999.25     -999.25     -999.25      -1.450       3.466       0.020       2.675
      5179.000      26.623      27.150     162.425       7.854     -999.25     -999.25     -999.25     -999.25      -1.440       3.563       0.017       2.681
      5179.500      19.967      19.612     173.178       7.911     -999.25     -999.25     -999.25     -999.25      -1.410       3.715       0.017       2.682
      5180.000      18.935      19.509     175.442       7.865     -999.25     -999.25     -999.25     -999.25      -1.370       3.852       0.021       2.674
      5180.500      19.462      20.065     185.629       7.888     -999.25     -999.25     -999.25     -999.25      -1.390       3.925       0.022       2.672
      5181.000      20.770      20.863     179.403       7.888     -999.25     -999.25     -999.25     -999.25      -1.390       3.887       0.017       2.681
      5181.500      20.008      20.220     172.046       7.888     -999.25     -999.25     -999.25     -999.25      -1.410       3.834       0.008       2.696
      5182.000      19.322      19.027     161.293       7.911     -999.25     -999.25     -999.25     -999.25      -1.400       3.752      -0.011       2.728
      5182.500      19.022      18.269     161.293       7.888     -999.25     -999.25     -999.25     -999.25      -1.390       3.726      -0.012       2.730
      5183.000      20.436      19.038     176.574       7.945     -999.25     -999.25     -999.25     -999.25      -1.420       3.713      -0.006       2.720
      5183.500      22.187      20.524     160.727       7.865     -999.25     -999.25     -999.25     -999.25      -1.410       3.685       0.003       2.706
      5184.000      21.803      20.858     164.123       7.842     -999.25     -999.25     -999.25     -999.25      -1.410       3.615      -0.010       2.727
      5184.500      21.095      19.995     161.859       7.865     -999.25     -999.25     -999.25     -999.25      -1.410       3.543      -0.019       2.743
      5185.000      21.519      21.762     173.178       7.854     -999.25     -999.25     -999.25     -999.25      -1.390       3.531      -0.018       2.741
      5185.500      26.483      27.377     170.348       7.911     -999.25     -999.25     -999.25     -999.25      -1.450       3.545      -0.012       2.731
      5186.000      33.353      33.816     159.595       7.888     -999.25     -999.25     -999.25     -999.25      -1.440       3.598      -0.009       2.726
      5186.500      25.889      29.117     156.766       7.865     -999.25     -999.25     -999.25     -999.25      -1.470       3.628      -0.016       2.738
      5187.000      25.025      27.173     153.653       7.842     -999.25     -999.25     -999.25     -999.25      -1.460       3.694      -0.014       2.734
      5187.500      25.899      27.682     152.521       7.865     -999.25     -999.25     -999.25     -999.25      -1.470       3.697      -0.011       2.728
