~Version Information
 VERS.                 2.0: 
 WRAP.                  NO: 
 END.                PETRA:GeoPLUS Corporation
~Well Information Block
#MNEM.UNIT       Data Type    Information
#---------    -------------   ---------------------------------
 STRT.F             37.0000:
 STOP.F           7042.5000:
 STEP.F              0.5000:
 NULL.              -999.25:
 COMP.                           : COMPANY
 FLD.       Weston-Jane Lew      : FIELD
 LOC.                            : LOCATION
 DATE.      02-JUL-2014          : DATE
 WELL.      4704105432           : Well Name
 LABL.      4704105432                       : Well Label
 APIN.      4704105432           : API Number
 UWI.       4704105432           : Unique Well Number
 NUMB.      33241                : Well Number
 OPER.      Dominion Exploration & Production : Operator Name
 LEAS.      W G Bennett          : Lease Name
~Parameter Block
#MNEM.UNIT           VALUE            Description
#---------    --------------------   ---------------------------------
 EKB.F                     1.0 : KB Elevation
~Curve Information Block
#MNEM.UNIT      API CODE      Curve Description
#---------    -------------   ---------------------------------
 DEPT.F                   00 000 00 00: Depth (MD)
 AT60.OHMM                00 001 00 00: Array Induction Two Foot Resistivity A60
 AT90.OHMM                00 002 00 00: Array Induction Two Foot Resistivity A90
 GR.GAPI                  00 003 00 00: Description
 HCAL.IN                  00 004 00 00: HRCC Cal. Caliper {F13.4}
 HCGR.GAPI                00 005 00 00: 
 HFK.CFCF                 00 006 00 00: HNGS Formation Potassium Concentration {
 HTHO.PPM                 00 007 00 00: HNGS Formation Thorium Concentration {F1
 HURA.PPM                 00 008 00 00: HNGS Formation Uranium Concentration {F1
 NPHI.CFCF                00 009 00 00: Thermal Neutron Porosity (Ratio Method)
 PEFZ.                    00 010 00 00: HRDD Standard Resolution Formation Photo
 PHID.PERC                00 011 00 00: Density Porosity
 RHOZ.G/C3                00 012 00 00: HRDD Standard Resolution Formation Densi
~A        DEPT        AT60        AT90          GR        HCAL        HCGR         HFK        HTHO        HURA        NPHI        PEFZ        PHID        RHOZ
# ...
       496.000      30.315       5.670      54.614       3.356     -999.25     -999.25     -999.25     -999.25       0.070      10.000       0.370       2.077
       496.500      36.650       6.668      60.556       3.310     -999.25     -999.25     -999.25     -999.25      -0.020      10.000       0.372       2.074
       497.000      41.710       9.437      68.480       3.333     -999.25     -999.25     -999.25     -999.25       0.020      10.000       0.384       2.054
       497.500      68.516      16.888      76.403       3.333     -999.25     -999.25     -999.25     -999.25       0.070      10.000       0.390       2.043
       498.000      15.170      15.976      75.554       3.356     -999.25     -999.25     -999.25     -999.25       0.030      10.000       0.407       2.015
       498.500      10.388      10.396      75.554       3.333     -999.25     -999.25     -999.25     -999.25      -0.180      10.000       0.415       2.000
       499.000       3.889       4.399      64.235       3.333     -999.25     -999.25     -999.25     -999.25      -0.240      10.000       0.412       2.006
       499.500       2.711       3.782      52.350       3.333     -999.25     -999.25     -999.25     -999.25       0.080      10.000       0.388       2.046
       500.000       9.414       5.265      42.729       3.310     -999.25     -999.25     -999.25     -999.25       0.410      10.000       0.386       2.050
       500.500       5.409       4.635      39.900       3.333     -999.25     -999.25     -999.25     -999.25       0.510      10.000       0.388       2.046
       501.000      10.161       9.288      43.012       3.333     -999.25     -999.25     -999.25     -999.25       0.200      10.000       0.397       2.031
       501.500       6.824       4.534      39.617       3.356     -999.25     -999.25     -999.25     -999.25       0.040      10.000       0.383       2.056
       502.000      36.089       8.369      44.993       3.333     -999.25     -999.25     -999.25     -999.25       0.030      10.000       0.383       2.055
       502.500      33.517      11.345      49.521       3.310     -999.25     -999.25     -999.25     -999.25       0.000      10.000       0.385       2.052
       503.000      82.106      25.740      52.633       3.310     -999.25     -999.25     -999.25     -999.25       0.070      10.000       0.388       2.047
       503.500     128.572      42.397      56.312       3.333     -999.25     -999.25     -999.25     -999.25      -0.030      10.000       0.385       2.052
       504.000     187.706      25.478      59.708       3.333     -999.25     -999.25     -999.25     -999.25       0.000      10.000       0.382       2.058
       504.500     104.111      21.876      68.480       3.356     -999.25     -999.25     -999.25     -999.25      -0.030      10.000       0.392       2.040
       505.000      78.713      21.344      69.046       3.356     -999.25     -999.25     -999.25     -999.25       0.100      10.000       0.375       2.069
       505.500      66.047      22.773      57.161       3.356     -999.25     -999.25     -999.25     -999.25       0.110      10.000       0.357       2.100
       506.000      53.356      25.949      51.501       3.333     -999.25     -999.25     -999.25     -999.25       0.140      10.000       0.321       2.162
       506.500      43.416      31.094      48.955       3.333     -999.25     -999.25     -999.25     -999.25       0.110      10.000       0.308       2.184
       507.000      36.540      37.968      52.350       3.310     -999.25     -999.25     -999.25     -999.25       0.140      10.000       0.293       2.209
       507.500      32.205      46.202      48.389       3.333     -999.25     -999.25     -999.25     -999.25       0.080      10.000       0.282       2.227
       508.000      29.507      55.570      48.389       3.310     -999.25     -999.25     -999.25     -999.25       0.040      10.000       0.278       2.234
       508.500      27.650      65.295      48.389       3.356     -999.25     -999.25     -999.25     -999.25       0.000      10.000       0.284       2.225
       509.000      25.898      69.405      52.916       3.333     -999.25     -999.25     -999.25     -999.25      -0.040      10.000       0.304       2.191
       509.500      23.735      60.596      55.463       3.356     -999.25     -999.25     -999.25     -999.25      -0.040      10.000       0.303       2.191
       510.000      21.068      44.587      63.952       3.310     -999.25     -999.25     -999.25     -999.25      -0.060      10.000       0.294       2.207
       510.500      18.390      31.693      71.309       3.333     -999.25     -999.25     -999.25     -999.25       0.020      10.000       0.284       2.224
       511.000      16.121      23.494      69.046       3.333     -999.25     -999.25     -999.25     -999.25       0.110      10.000       0.289       2.216
       511.500      14.346      18.252      57.161       3.333     -999.25     -999.25     -999.25     -999.25       0.150      10.000       0.286       2.220
       512.000      12.953      14.587      41.314       3.310     -999.25     -999.25     -999.25     -999.25       0.150      10.000       0.271       2.247
       512.500      11.892      11.916      28.298       3.333     -999.25     -999.25     -999.25     -999.25       0.040      10.000       0.253       2.278
       513.000      11.182      10.016      26.034       3.333     -999.25     -999.25     -999.25     -999.25       0.040      10.000       0.248       2.286
       513.500      10.881       8.743      25.751       3.310     -999.25     -999.25     -999.25     -999.25       0.050      10.000       0.247       2.287
       514.000      10.993       7.913      24.619       3.333     -999.25     -999.25     -999.25     -999.25       0.040      10.000       0.254       2.277
       514.500      11.462       7.344      20.092       3.333     -999.25     -999.25     -999.25     -999.25       0.000      10.000       0.258       2.268
       515.000      12.196       6.917      14.998       3.333     -999.25     -999.25     -999.25     -999.25      -0.030      10.000       0.261       2.264
       515.500      13.098       6.580      15.564       3.333     -999.25     -999.25     -999.25     -999.25      -0.010      10.000       0.256       2.272
       516.000      14.091       6.321      18.394       3.333     -999.25     -999.25     -999.25     -999.25       0.000      10.000       0.263       2.261
       516.500      15.074       6.145      20.092       3.333     -999.25     -999.25     -999.25     -999.25       0.040      10.000       0.259       2.268
       517.000      15.990       6.067      22.356       3.356     -999.25     -999.25     -999.25     -999.25       0.050      10.000       0.261       2.264
       517.500      16.837       6.100      20.092       3.333     -999.25     -999.25     -999.25     -999.25       0.040      10.000       0.253       2.278
       518.000      17.726       6.251      18.394       3.333     -999.25     -999.25     -999.25     -999.25       0.040      10.000       0.259       2.268
       518.500      18.698       6.510      14.998       3.333     -999.25     -999.25     -999.25     -999.25      -0.050      10.000       0.286       2.221
       519.000      19.613       6.863      13.866       3.310     -999.25     -999.25     -999.25     -999.25      -0.030      10.000       0.312       2.177
       519.500      20.388       7.329      18.677       3.310     -999.25     -999.25     -999.25     -999.25      -0.100       9.996       0.331       2.143
       520.000      21.110       7.937      23.770       3.333     -999.25     -999.25     -999.25     -999.25      -0.120       9.996       0.337       2.133
       520.500      21.870       8.637      25.468       3.310     -999.25     -999.25     -999.25     -999.25      -0.140       9.996       0.335       2.138
       521.000      22.407       9.216      26.600       3.333     -999.25     -999.25     -999.25     -999.25      -0.220       9.964       0.328       2.149
