~Version Information
 VERS.                 2.0: 
 WRAP.                  NO: 
 END.                PETRA:GeoPLUS Corporation
~Well Information Block
#MNEM.UNIT       Data Type    Information
#---------    -------------   ---------------------------------
 STRT.F             37.0000:
 STOP.F           7042.5000:
 STEP.F              0.5000:
 NULL.              -999.25:
 COMP.                           : COMPANY
 FLD.       Weston-Jane Lew      : FIELD
 LOC.                            : LOCATION
 DATE.      02-JUL-2014          : DATE
 WELL.      4704105432           : Well Name
 LABL.      4704105432                       : Well Label
 APIN.      4704105432           : API Number
 UWI.       4704105432           : Unique Well Number
 NUMB.      33241                : Well Number
 OPER.      Dominion Exploration & Production : Operator Name
 LEAS.      W G Bennett          : Lease Name
~Parameter Block
#MNEM.UNIT           VALUE            Description
#---------    --------------------   ---------------------------------
 EKB.F                     1.0 : KB Elevation
~Curve Information Block
#MNEM.UNIT      API CODE      Curve Description
#---------    -------------   ---------------------------------
 DEPT.F                   00 000 00 00: Depth (MD)
 AT60.OHMM                00 001 00 00: Array Induction Two Foot Resistivity A60
 AT90.OHMM                00 002 00 00: Array Induction Two Foot Resistivity A90
 GR.GAPI                  00 003 00 00: Description
 HCAL.IN                  00 004 00 00: HRCC Cal. Caliper {F13.4}
 HCGR.GAPI                00 005 00 00: 
 HFK.CFCF                 00 006 00 00: HNGS Formation Potassium Concentration {
 HTHO.PPM                 00 007 00 00: HNGS Formation Thorium Concentration {F1
 HURA.PPM                 00 008 00 00: HNGS Formation Uranium Concentration {F1
 NPHI.CFCF                00 009 00 00: Thermal Neutron Porosity (Ratio Method)
 PEFZ.                    00 010 00 00: HRDD Standard Resolution Formation Photo
 PHID.PERC                00 011 00 00: Density Porosity
 RHOZ.G/C3                00 012 00 00: HRDD Standard Resolution Formation Densi
~A        DEPT        AT60        AT90          GR        HCAL        HCGR         HFK        HTHO        HURA        NPHI        PEFZ        PHID        RHOZ
# ...
      7024.000      47.904      46.603      30.561       7.660      21.631       0.010       1.253       3.902      -1.650       2.542       0.092       2.552
      7024.500      48.506      47.103      30.561       7.660      23.143       0.011       1.235       3.461      -1.650       2.542       0.092       2.552
      7025.000      48.029      46.341      30.561       7.660      22.869       0.011       0.697       3.285      -1.650       2.542       0.092       2.552
      7025.500      49.055      47.156      30.561       7.660      22.821       0.012       0.425       3.177      -1.650       2.542       0.092       2.552
      7026.000      49.160      47.273      30.561       7.660      23.951       0.013       0.328       2.980      -1.650       2.542       0.092       2.552
      7026.500      49.760      47.822      30.561       7.660      26.105       0.014       0.322       2.619      -1.650       2.542       0.092       2.552
      7027.000      49.853      47.957      30.561       7.660      26.687       0.014       0.247       2.536      -1.650       2.542       0.092       2.552
      7027.500      49.941      48.158      30.561       7.660      26.280       0.014       0.067       2.591      -1.650       2.542       0.092       2.552
      7028.000      49.834      48.185      30.561       7.660      26.280       0.014       0.067       2.591      -1.650       2.542       0.092       2.552
      7028.500      49.760      48.226      30.561       7.660      26.280       0.014       0.067       2.591      -1.650       2.542       0.092       2.552
      7029.000      49.591      48.149      30.561       7.660      26.280       0.014       0.067       2.591      -1.650       2.566       0.097       2.544
      7029.500      49.518      48.105      30.561       7.660      26.280       0.014       0.067       2.591      -1.650       2.589       0.102       2.535
      7030.000      49.399      48.058      30.561       7.660      26.280       0.014       0.067       2.591      -1.650       2.607       0.104       2.531
      7030.500      49.358      48.069      30.561       7.660      26.280       0.014       0.067       2.591      -1.650     -999.25     -999.25     -999.25
      7031.000      49.380      48.112      30.561       7.660      26.280       0.014       0.067       2.591      -1.650     -999.25     -999.25     -999.25
      7031.500      49.401      48.158      30.561       7.660      26.280       0.014       0.067       2.591      -1.650     -999.25     -999.25     -999.25
      7032.000      49.425      48.217      30.561       7.660      26.280       0.014       0.067       2.591      -1.650     -999.25     -999.25     -999.25
      7032.500      49.434      48.253      30.561       7.660      26.280       0.014       0.067       2.591      -1.650     -999.25     -999.25     -999.25
      7033.000      49.451      48.305      30.561       7.660      26.280       0.014       0.067       2.591      -1.650     -999.25     -999.25     -999.25
      7033.500      49.467      48.347      30.561       7.660      26.280       0.014       0.067       2.591      -1.650     -999.25     -999.25     -999.25
      7034.000      49.480      48.385      30.561       7.660      26.280       0.014       0.067       2.591      -1.650     -999.25     -999.25     -999.25
      7034.500      49.484      48.418      30.561       7.660      26.280       0.014       0.067       2.591      -1.650     -999.25     -999.25     -999.25
      7035.000      49.493      48.447      30.561       7.660      26.280       0.014       0.067       2.591      -1.650     -999.25     -999.25     -999.25
      7035.500     -999.25     -999.25     -999.25     -999.25      26.280       0.014       0.067       2.591     -999.25     -999.25     -999.25     -999.25
      7036.000     -999.25     -999.25     -999.25     -999.25      26.280       0.014       0.067       2.591     -999.25     -999.25     -999.25     -999.25
      7036.500     -999.25     -999.25     -999.25     -999.25      26.280       0.014       0.067       2.591     -999.25     -999.25     -999.25     -999.25
      7037.000     -999.25     -999.25     -999.25     -999.25      26.280       0.014       0.067       2.591     -999.25     -999.25     -999.25     -999.25
      7037.500     -999.25     -999.25     -999.25     -999.25      26.280       0.014       0.067       2.591     -999.25     -999.25     -999.25     -999.25
      7038.000     -999.25     -999.25     -999.25     -999.25      26.280       0.014       0.067       2.591     -999.25     -999.25     -999.25     -999.25
      7038.500     -999.25     -999.25     -999.25     -999.25      26.280       0.014       0.067       2.591     -999.25     -999.25     -999.25     -999.25
      7039.000     -999.25     -999.25     -999.25     -999.25      26.280       0.014       0.067       2.591     -999.25     -999.25     -999.25     -999.25
      7039.500     -999.25     -999.25     -999.25     -999.25      26.280       0.014       0.067       2.591     -999.25     -999.25     -999.25     -999.25
      7040.000     -999.25     -999.25     -999.25     -999.25      26.280       0.014       0.067       2.591     -999.25     -999.25     -999.25     -999.25
      7040.500     -999.25     -999.25     -999.25     -999.25      26.280       0.014       0.067       2.591     -999.25     -999.25     -999.25     -999.25
      7041.000     -999.25     -999.25     -999.25     -999.25      26.280       0.014       0.067       2.591     -999.25     -999.25     -999.25     -999.25
      7041.500     -999.25     -999.25     -999.25     -999.25      26.280       0.014       0.067       2.591     -999.25     -999.25     -999.25     -999.25
      7042.000     -999.25     -999.25     -999.25     -999.25      26.280       0.014       0.067       2.591     -999.25     -999.25     -999.25     -999.25
      7042.500     -999.25     -999.25     -999.25     -999.25      26.280       0.014       0.067       2.591     -999.25     -999.25     -999.25     -999.25
