~Version Information
 VERS.                 2.0: 
 WRAP.                  NO: 
 END.                PETRA:GeoPLUS Corporation
~Well Information Block
#MNEM.UNIT       Data Type    Information
#---------    -------------   ---------------------------------
 STRT.F             37.0000:
 STOP.F           7042.5000:
 STEP.F              0.5000:
 NULL.              -999.25:
 COMP.                           : COMPANY
 FLD.       Weston-Jane Lew      : FIELD
 LOC.                            : LOCATION
 DATE.      02-JUL-2014          : DATE
 WELL.      4704105432           : Well Name
 LABL.      4704105432                       : Well Label
 APIN.      4704105432           : API Number
 UWI.       4704105432           : Unique Well Number
 NUMB.      33241                : Well Number
 OPER.      Dominion Exploration & Production : Operator Name
 LEAS.      W G Bennett          : Lease Name
~Parameter Block
#MNEM.UNIT           VALUE            Description
#---------    --------------------   ---------------------------------
 EKB.F                     1.0 : KB Elevation
~Curve Information Block
#MNEM.UNIT      API CODE      Curve Description
#---------    -------------   ---------------------------------
 DEPT.F                   00 000 00 00: Depth (MD)
 AT60.OHMM                00 001 00 00: Array Induction Two Foot Resistivity A60
 AT90.OHMM                00 002 00 00: Array Induction Two Foot Resistivity A90
 GR.GAPI                  00 003 00 00: Description
 HCAL.IN                  00 004 00 00: HRCC Cal. Caliper {F13.4}
 HCGR.GAPI                00 005 00 00: 
 HFK.CFCF                 00 006 00 00: HNGS Formation Potassium Concentration {
 HTHO.PPM                 00 007 00 00: HNGS Formation Thorium Concentration {F1
 HURA.PPM                 00 008 00 00: HNGS Formation Uranium Concentration {F1
 NPHI.CFCF                00 009 00 00: Thermal Neutron Porosity (Ratio Method)
 PEFZ.                    00 010 00 00: HRDD Standard Resolution Formation Photo
 PHID.PERC                00 011 00 00: Density Porosity
 RHOZ.G/C3                00 012 00 00: HRDD Standard Resolution Formation Densi
~A        DEPT        AT60        AT90          GR        HCAL        HCGR         HFK        HTHO        HURA        NPHI        PEFZ        PHID        RHOZ
# ...
      5621.500      29.502      29.655     185.062       7.911     -999.25     -999.25     -999.25     -999.25      -1.360       3.542       0.002       2.706
      5622.000      27.308      28.641     196.381       7.729     -999.25     -999.25     -999.25     -999.25      -1.290       3.690       0.013       2.688
      5622.500      24.609      26.817     186.760       7.729     -999.25     -999.25     -999.25     -999.25      -1.310       3.799       0.015       2.684
      5623.000      25.146      26.257     171.480       7.660     -999.25     -999.25     -999.25     -999.25      -1.310       3.833       0.006       2.699
      5623.500      24.730      25.087     152.238       7.706     -999.25     -999.25     -999.25     -999.25      -1.330       3.841       0.000       2.711
      5624.000      24.034      24.209     169.499       7.683     -999.25     -999.25     -999.25     -999.25      -1.310       3.880       0.011       2.691
      5624.500      22.958      22.871     175.724       7.683     -999.25     -999.25     -999.25     -999.25      -1.330       3.864       0.027       2.664
      5625.000      21.998      21.470     174.027       7.660     -999.25     -999.25     -999.25     -999.25      -1.340       3.794       0.030       2.659
      5625.500      20.945      21.355     159.595       7.637     -999.25     -999.25     -999.25     -999.25      -1.340       3.707       0.014       2.686
      5626.000      20.614      21.376     150.540       7.683     -999.25     -999.25     -999.25     -999.25      -1.330       3.700      -0.002       2.714
      5626.500      20.148      21.360     156.765       7.615     -999.25     -999.25     -999.25     -999.25      -1.310       3.703      -0.007       2.722
      5627.000      19.400      20.725     156.199       7.660     -999.25     -999.25     -999.25     -999.25      -1.330       3.646      -0.001       2.712
      5627.500      18.752      19.786     153.936       7.672     -999.25     -999.25     -999.25     -999.25      -1.360       3.582       0.000       2.709
      5628.000      17.906      18.734     163.274       7.660     -999.25     -999.25     -999.25     -999.25      -1.370       3.567      -0.009       2.726
      5628.500      17.747      18.156     163.274       7.694     -999.25     -999.25     -999.25     -999.25      -1.370       3.560      -0.008       2.724
      5629.000      17.885      17.678     183.082       7.774     -999.25     -999.25     -999.25     -999.25      -1.380       3.550      -0.002       2.714
      5629.500      21.874      20.662     171.197       7.888     -999.25     -999.25     -999.25     -999.25      -1.400       3.583       0.017       2.682
      5630.000      22.446      21.280     168.367       7.922     -999.25     -999.25     -999.25     -999.25      -1.420       3.671       0.023       2.672
      5630.500      22.922      20.452     170.065       7.911     -999.25     -999.25     -999.25     -999.25      -1.430       3.749       0.025       2.667
      5631.000      23.283      21.912     196.381       7.934     -999.25     -999.25     -999.25     -999.25      -1.410       3.809       0.026       2.665
      5631.500      25.397      24.483     209.964       7.888     -999.25     -999.25     -999.25     -999.25      -1.380       3.787       0.027       2.664
      5632.000      27.702      27.333     206.002       7.888     -999.25     -999.25     -999.25     -999.25      -1.360       3.793       0.025       2.667
      5632.500      28.697      28.729     198.079       7.865     -999.25     -999.25     -999.25     -999.25      -1.340       3.732       0.023       2.671
      5633.000      25.884      27.923     195.249       7.751     -999.25     -999.25     -999.25     -999.25      -1.300       3.757       0.030       2.659
      5633.500      24.273      25.252     187.326       7.637     -999.25     -999.25     -999.25     -999.25      -1.280       3.851       0.058       2.612
      5634.000      24.570      25.394     176.573       7.694     -999.25     -999.25     -999.25     -999.25      -1.320       3.937       0.075       2.582
      5634.500      24.178      24.865     169.782       7.660     -999.25     -999.25     -999.25     -999.25      -1.330       4.012       0.069       2.592
      5635.000      24.676      24.810     163.557       7.683     -999.25     -999.25     -999.25     -999.25      -1.330       3.967       0.041       2.639
      5635.500      22.453      22.734     153.370       7.672     -999.25     -999.25     -999.25     -999.25      -1.300       3.900       0.029       2.661
      5636.000      21.678      21.714     157.897       7.615     -999.25     -999.25     -999.25     -999.25      -1.280       3.798       0.021       2.675
      5636.500      19.606      19.924     168.084       7.592     -999.25     -999.25     -999.25     -999.25      -1.270       3.708       0.018       2.680
      5637.000      19.068      19.983     163.840       7.660     -999.25     -999.25     -999.25     -999.25      -1.310       3.642       0.006       2.700
      5637.500      19.562      20.836     160.444       7.637     -999.25     -999.25     -999.25     -999.25      -1.320       3.552       0.006       2.700
      5638.000      20.038      21.549     147.428       7.660     -999.25     -999.25     -999.25     -999.25      -1.330       3.510       0.006       2.700
      5638.500      19.624      20.264     146.013       7.683     -999.25     -999.25     -999.25     -999.25      -1.330       3.566      -0.002       2.713
      5639.000      17.764      18.204     139.221       7.637     -999.25     -999.25     -999.25     -999.25      -1.310       3.682      -0.004       2.717
      5639.500      16.448      16.584     152.238       7.751     -999.25     -999.25     -999.25     -999.25      -1.350       3.789      -0.015       2.736
      5640.000      17.794      17.148     162.991       7.797     -999.25     -999.25     -999.25     -999.25      -1.340       3.766      -0.021       2.746
      5640.500      18.494      17.431     175.442       8.002     -999.25     -999.25     -999.25     -999.25      -1.430       3.678      -0.030       2.761
      5641.000      19.019      17.723     167.801       7.979     -999.25     -999.25     -999.25     -999.25      -1.400       3.592      -0.030       2.761
      5641.500      19.014      17.545     162.142       7.979     -999.25     -999.25     -999.25     -999.25      -1.390       3.582      -0.028       2.758
      5642.000      21.013      19.466     159.878       7.979     -999.25     -999.25     -999.25     -999.25      -1.370       3.616      -0.025       2.752
      5642.500      23.775      22.419     162.425       8.047     -999.25     -999.25     -999.25     -999.25      -1.390       3.629      -0.017       2.740
      5643.000      24.245      22.827     176.007       8.002     -999.25     -999.25     -999.25     -999.25      -1.380       3.655      -0.013       2.733
      5643.500      20.447      20.389     168.650       7.820     -999.25     -999.25     -999.25     -999.25      -1.330       3.658      -0.011       2.729
      5644.000      20.164      20.354     174.876       7.820     -999.25     -999.25     -999.25     -999.25      -1.370       3.617      -0.006       2.720
      5644.500      20.222      21.148     177.988       7.956     -999.25     -999.25     -999.25     -999.25      -1.430       3.504      -0.003       2.715
      5645.000      19.238      19.987     183.082       7.820     -999.25     -999.25     -999.25     -999.25      -1.370       3.422      -0.005       2.719
      5645.500      17.602      18.540     181.950       7.797     -999.25     -999.25     -999.25     -999.25      -1.350       3.421      -0.007       2.721
      5646.000      17.128      18.031     174.310       7.820     -999.25     -999.25     -999.25     -999.25      -1.330       3.471      -0.009       2.725
      5646.500      18.212      19.404     169.782       7.797     -999.25     -999.25     -999.25     -999.25      -1.350       3.568      -0.008       2.723
