~Version Information
 VERS.                 2.0: 
 WRAP.                  NO: 
 END.                PETRA:GeoPLUS Corporation
~Well Information Block
#MNEM.UNIT       Data Type    Information
#---------    -------------   ---------------------------------
 STRT.F             37.0000:
 STOP.F           7042.5000:
 STEP.F              0.5000:
 NULL.              -999.25:
 COMP.                           : COMPANY
 FLD.       Weston-Jane Lew      : FIELD
 LOC.                            : LOCATION
 DATE.      02-JUL-2014          : DATE
 WELL.      4704105432           : Well Name
 LABL.      4704105432                       : Well Label
 APIN.      4704105432           : API Number
 UWI.       4704105432           : Unique Well Number
 NUMB.      33241                : Well Number
 OPER.      Dominion Exploration & Production : Operator Name
 LEAS.      W G Bennett          : Lease Name
~Parameter Block
#MNEM.UNIT           VALUE            Description
#---------    --------------------   ---------------------------------
 EKB.F                     1.0 : KB Elevation
~Curve Information Block
#MNEM.UNIT      API CODE      Curve Description
#---------    -------------   ---------------------------------
 DEPT.F                   00 000 00 00: Depth (MD)
 AT60.OHMM                00 001 00 00: Array Induction Two Foot Resistivity A60
 AT90.OHMM                00 002 00 00: Array Induction Two Foot Resistivity A90
 GR.GAPI                  00 003 00 00: Description
 HCAL.IN                  00 004 00 00: HRCC Cal. Caliper {F13.4}
 HCGR.GAPI                00 005 00 00: 
 HFK.CFCF                 00 006 00 00: HNGS Formation Potassium Concentration {
 HTHO.PPM                 00 007 00 00: HNGS Formation Thorium Concentration {F1
 HURA.PPM                 00 008 00 00: HNGS Formation Uranium Concentration {F1
 NPHI.CFCF                00 009 00 00: Thermal Neutron Porosity (Ratio Method)
 PEFZ.                    00 010 00 00: HRDD Standard Resolution Formation Photo
 PHID.PERC                00 011 00 00: Density Porosity
 RHOZ.G/C3                00 012 00 00: HRDD Standard Resolution Formation Densi
~A        DEPT        AT60        AT90          GR        HCAL        HCGR         HFK        HTHO        HURA        NPHI        PEFZ        PHID        RHOZ
# ...
      6080.500      23.237      23.168     168.650       7.740     143.192       0.045      19.359       3.500      -1.350       3.734       0.012       2.689
      6081.000      21.674      21.566     172.046       7.744     148.143       0.047      20.015       3.416      -1.350       3.715       0.006       2.699
      6081.500      21.379      20.996     170.348       7.721     147.927       0.047      20.117       3.580      -1.350       3.629       0.001       2.709
      6082.000      22.255      22.098     165.821       7.721     147.063       0.046      20.225       3.775      -1.340       3.582      -0.009       2.725
      6082.500      22.674      22.717     163.274       7.729     147.574       0.046      20.199       3.697      -1.340       3.555      -0.007       2.723
      6083.000      22.862      23.056     163.274       7.698     146.838       0.046      20.359       3.815      -1.330       3.588      -0.002       2.713
      6083.500      23.228      23.431     168.367       7.668     141.869       0.044      19.438       3.943      -1.330       3.657       0.002       2.707
      6084.000      23.886      24.178     163.557       7.774     136.708       0.042      18.948       4.048      -1.360       3.731       0.002       2.707
      6084.500      23.728      24.092     165.821       7.729     135.936       0.042      18.762       4.069      -1.330       3.798      -0.006       2.721
      6085.000      23.396      23.688     160.444       7.717     136.440       0.042      18.948       4.147      -1.300       3.786       0.006       2.700
      6085.500      20.081      20.607     159.878       7.767     138.026       0.043      19.225       4.423      -1.300       3.747       0.011       2.691
      6086.000      23.925      24.337     159.312       7.713     137.302       0.042      19.255       4.693      -1.310       3.724       0.012       2.689
      6086.500      30.379      31.954     169.782       7.691     136.589       0.042      19.052       4.787      -1.310       3.762      -0.002       2.714
      6087.000      29.645      29.667     168.084       7.694     137.417       0.043      18.962       4.667      -1.320       3.809      -0.017       2.739
      6087.500      27.313      28.112     164.689       7.740     135.518       0.042      18.646       4.308      -1.330       3.801      -0.026       2.755
      6088.000      29.428      29.668     164.406       7.740     137.355       0.043      19.098       4.228      -1.330       3.746      -0.030       2.762
      6088.500      30.491      30.855     175.159       7.729     136.646       0.042      19.017       4.293      -1.330       3.668      -0.023       2.749
      6089.000      30.124      30.312     169.499       7.729     139.129       0.043      19.515       4.424      -1.330       3.593      -0.010       2.726
      6089.500      28.277      29.014     149.974       7.683     141.752       0.044      19.821       4.100      -1.310       3.541      -0.002       2.713
      6090.000      31.225      31.818     146.296       7.740     139.337       0.043      19.668       4.246      -1.320       3.492       0.001       2.709
      6090.500      31.247      31.387     150.823       7.683     141.053       0.043      20.299       4.153      -1.320       3.482      -0.005       2.718
      6091.000      34.392      34.871     165.538       7.691     139.310       0.042      19.981       4.110      -1.350       3.475      -0.003       2.715
      6091.500      35.267      35.612     160.161       7.660     138.838       0.041      20.429       4.297      -1.370       3.481       0.007       2.699
      6092.000      35.817      36.390     163.557       7.660     134.904       0.040      19.822       4.283      -1.370       3.523       0.010       2.693
      6092.500      35.401      35.857     152.804       7.569     129.264       0.039      18.841       4.219      -1.350       3.595       0.003       2.705
      6093.000      34.109      34.565     156.483       7.637     123.656       0.037      17.781       4.310      -1.350       3.688      -0.011       2.728
      6093.500      39.531      41.050     154.219       7.562     119.660       0.036      16.995       4.344      -1.320       3.746      -0.013       2.733
      6094.000      37.764      36.803     157.049       7.615     123.381       0.038      17.551       4.065      -1.320       3.799       0.001       2.709
      6094.500      28.369      29.306     159.595       7.600     125.085       0.039      17.454       4.013      -1.310       3.838       0.014       2.686
      6095.000      27.037      26.678     159.595       7.603     128.285       0.040      17.484       4.154      -1.320       3.892       0.018       2.680
      6095.500      28.519      27.653     157.049       7.622     131.216       0.041      17.765       4.126      -1.320       3.913       0.005       2.701
      6096.000      28.421      28.831     155.917       7.645     133.434       0.043      17.812       4.112      -1.310       3.910      -0.009       2.725
      6096.500      26.653      27.106     158.180       7.615     135.229       0.043      18.128       3.896      -1.290       3.838      -0.013       2.733
      6097.000      26.667      26.667     166.952       7.569     136.117       0.044      17.801       3.749      -1.280       3.726      -0.009       2.725
      6097.500      26.965      26.960     169.216       7.637     138.955       0.045      18.254       3.821      -1.280       3.624       0.001       2.708
      6098.000      27.245      27.194     166.952       7.672     141.651       0.046      18.667       3.950      -1.290       3.582       0.004       2.704
      6098.500      27.603      28.023     169.216       7.706     141.323       0.045      18.780       4.056      -1.300       3.588       0.001       2.708
      6099.000      28.046      28.888     170.348       7.706     141.427       0.045      18.710       3.932      -1.310       3.581       0.001       2.708
      6099.500      28.745      29.545     175.442       7.672     140.039       0.045      18.742       4.031      -1.320       3.584       0.014       2.687
      6100.000      28.112      29.040     170.348       7.630     138.153       0.044      18.615       3.890      -1.330       3.617       0.026       2.665
      6100.500      25.826      26.785     168.084       7.683     139.402       0.044      19.137       3.819      -1.360       3.649       0.026       2.665
      6101.000      25.286      26.346     166.387       7.672     137.252       0.043      18.594       3.916      -1.370       3.653       0.015       2.685
      6101.500      26.920      28.395     164.123       7.763     137.035       0.043      18.658       3.824      -1.400       3.668      -0.004       2.717
      6102.000      28.613      31.020     170.348       7.945     134.019       0.043      17.865       4.010      -1.440       3.694      -0.015       2.735
      6102.500      26.134      26.942     170.914       7.964     134.233       0.043      17.755       3.798      -1.430       3.722      -0.020       2.744
      6103.000      23.380      23.575     172.329       7.895     137.338       0.044      18.061       3.699      -1.400       3.731      -0.008       2.725
      6103.500      23.541      23.605     164.406       7.797     139.698       0.045      18.436       3.834      -1.360       3.716       0.005       2.702
      6104.000      23.617      23.611     163.840       7.694     140.990       0.046      18.309       3.972      -1.340       3.679       0.020       2.675
      6104.500      23.770      23.869     170.914       7.653     143.659       0.046      19.048       3.916      -1.320       3.683       0.035       2.651
      6105.000      24.129      24.278     178.837       7.789     142.358       0.046      18.663       3.688      -1.340       3.729       0.052       2.620
      6105.500      23.595      23.828     177.139       7.569     143.760       0.046      19.353       3.617      -1.280       3.787       0.071       2.589
