~Version Information
 VERS.                 2.0: 
 WRAP.                  NO: 
 END.                PETRA:GeoPLUS Corporation
~Well Information Block
#MNEM.UNIT       Data Type    Information
#---------    -------------   ---------------------------------
 STRT.F             37.0000:
 STOP.F           7042.5000:
 STEP.F              0.5000:
 NULL.              -999.25:
 COMP.                           : COMPANY
 FLD.       Weston-Jane Lew      : FIELD
 LOC.                            : LOCATION
 DATE.      02-JUL-2014          : DATE
 WELL.      4704105432           : Well Name
 LABL.      4704105432                       : Well Label
 APIN.      4704105432           : API Number
 UWI.       4704105432           : Unique Well Number
 NUMB.      33241                : Well Number
 OPER.      Dominion Exploration & Production : Operator Name
 LEAS.      W G Bennett          : Lease Name
~Parameter Block
#MNEM.UNIT           VALUE            Description
#---------    --------------------   ---------------------------------
 EKB.F                     1.0 : KB Elevation
~Curve Information Block
#MNEM.UNIT      API CODE      Curve Description
#---------    -------------   ---------------------------------
 DEPT.F                   00 000 00 00: Depth (MD)
 AT60.OHMM                00 001 00 00: Array Induction Two Foot Resistivity A60
 AT90.OHMM                00 002 00 00: Array Induction Two Foot Resistivity A90
 GR.GAPI                  00 003 00 00: Description
 HCAL.IN                  00 004 00 00: HRCC Cal. Caliper {F13.4}
 HCGR.GAPI                00 005 00 00: 
 HFK.CFCF                 00 006 00 00: HNGS Formation Potassium Concentration {
 HTHO.PPM                 00 007 00 00: HNGS Formation Thorium Concentration {F1
 HURA.PPM                 00 008 00 00: HNGS Formation Uranium Concentration {F1
 NPHI.CFCF                00 009 00 00: Thermal Neutron Porosity (Ratio Method)
 PEFZ.                    00 010 00 00: HRDD Standard Resolution Formation Photo
 PHID.PERC                00 011 00 00: Density Porosity
 RHOZ.G/C3                00 012 00 00: HRDD Standard Resolution Formation Densi
~A        DEPT        AT60        AT90          GR        HCAL        HCGR         HFK        HTHO        HURA        NPHI        PEFZ        PHID        RHOZ
# ...
      2842.000      34.614      33.210     108.661       7.934     -999.25     -999.25     -999.25     -999.25      -1.590       3.088       0.004       2.704
      2842.500      31.886      31.346     119.414       7.934     -999.25     -999.25     -999.25     -999.25      -1.550       3.098       0.004       2.703
      2843.000      30.972      30.052     134.411       7.956     -999.25     -999.25     -999.25     -999.25      -1.500       3.147       0.005       2.702
      2843.500      31.676      31.249     141.769       7.956     -999.25     -999.25     -999.25     -999.25      -1.490       3.172       0.007       2.698
      2844.000      31.518      31.503     137.807       7.956     -999.25     -999.25     -999.25     -999.25      -1.510       3.170       0.008       2.696
      2844.500      30.086      30.918     140.920       7.934     -999.25     -999.25     -999.25     -999.25      -1.530       3.185       0.010       2.692
      2845.000      28.363      29.854     147.428       7.956     -999.25     -999.25     -999.25     -999.25      -1.530       3.256       0.015       2.684
      2845.500      26.674      28.452     161.011       7.956     -999.25     -999.25     -999.25     -999.25      -1.500       3.367       0.021       2.674
      2846.000      25.921      27.983     174.027       7.934     -999.25     -999.25     -999.25     -999.25      -1.470       3.443       0.018       2.679
      2846.500      29.299      32.110     168.934       7.945     -999.25     -999.25     -999.25     -999.25      -1.450       3.468       0.015       2.685
      2847.000      29.996      33.749     151.390       7.934     -999.25     -999.25     -999.25     -999.25      -1.480       3.449       0.014       2.687
      2847.500      32.975      33.597     123.093       7.911     -999.25     -999.25     -999.25     -999.25      -1.520       3.437       0.014       2.686
      2848.000      37.326      37.967     110.359       7.888     -999.25     -999.25     -999.25     -999.25      -1.550       3.458       0.013       2.688
      2848.500      39.593      41.340     103.002       7.888     -999.25     -999.25     -999.25     -999.25      -1.550       3.465       0.002       2.707
      2849.000      39.598      40.410     105.831       7.911     -999.25     -999.25     -999.25     -999.25      -1.550       3.423      -0.003       2.715
      2849.500      34.610      41.261     100.172       7.911     -999.25     -999.25     -999.25     -999.25      -1.550       3.347      -0.005       2.718
      2850.000      32.179      37.924     101.870       7.911     -999.25     -999.25     -999.25     -999.25      -1.580       3.278      -0.001       2.711
      2850.500      37.979      39.150     107.812       7.911     -999.25     -999.25     -999.25     -999.25      -1.590       3.315       0.008       2.697
      2851.000      35.679      35.811     123.093       7.911     -999.25     -999.25     -999.25     -999.25      -1.560       3.343       0.011       2.692
      2851.500      29.391      28.867     141.203       7.911     -999.25     -999.25     -999.25     -999.25      -1.530       3.384       0.009       2.694
      2852.000      31.707      27.184     148.843       7.899     -999.25     -999.25     -999.25     -999.25      -1.500       3.337       0.001       2.708
      2852.500      38.711      35.760     145.447       7.911     -999.25     -999.25     -999.25     -999.25      -1.540       3.295       0.000       2.710
      2853.000      38.485      34.573     134.128       7.888     -999.25     -999.25     -999.25     -999.25      -1.580       3.301       0.003       2.706
      2853.500      43.415      40.567     126.205       7.865     -999.25     -999.25     -999.25     -999.25      -1.560       3.353      -0.007       2.721
      2854.000      46.940      45.321     121.678       7.888     -999.25     -999.25     -999.25     -999.25      -1.540       3.466      -0.018       2.741
      2854.500      42.623      49.774     142.334       7.911     -999.25     -999.25     -999.25     -999.25      -1.470       3.551      -0.027       2.756
      2855.000      35.419      35.941     157.049       7.911     -999.25     -999.25     -999.25     -999.25      -1.450       3.598      -0.020       2.743
      2855.500      28.505      28.750     176.857       7.899     -999.25     -999.25     -999.25     -999.25      -1.430       3.570      -0.009       2.726
      2856.000      28.326      28.622     154.502       7.888     -999.25     -999.25     -999.25     -999.25      -1.430       3.498      -0.002       2.714
      2856.500      29.747      28.541     151.956       7.911     -999.25     -999.25     -999.25     -999.25      -1.430       3.484       0.003       2.706
      2857.000      28.514      29.293     147.428       7.888     -999.25     -999.25     -999.25     -999.25      -1.430       3.497       0.001       2.709
      2857.500      27.830      29.035     156.483       7.934     -999.25     -999.25     -999.25     -999.25      -1.460       3.510      -0.002       2.714
      2858.000      27.397      28.456     152.239       7.899     -999.25     -999.25     -999.25     -999.25      -1.460       3.473      -0.007       2.722
      2858.500      28.270      28.877     153.936       7.911     -999.25     -999.25     -999.25     -999.25      -1.480       3.437      -0.006       2.721
      2859.000      27.373      29.965     149.975       7.911     -999.25     -999.25     -999.25     -999.25      -1.470       3.434      -0.002       2.714
      2859.500      27.125      29.996     157.898       7.911     -999.25     -999.25     -999.25     -999.25      -1.480       3.440      -0.001       2.713
      2860.000      26.400      27.392     157.049       7.922     -999.25     -999.25     -999.25     -999.25      -1.470       3.468      -0.001       2.712
      2860.500      26.098      26.933     159.313       7.934     -999.25     -999.25     -999.25     -999.25      -1.470       3.472      -0.002       2.714
      2861.000      23.575      24.449     144.598       7.911     -999.25     -999.25     -999.25     -999.25      -1.460       3.462      -0.005       2.718
      2861.500      24.878      25.686     150.541       7.956     -999.25     -999.25     -999.25     -999.25      -1.500       3.446      -0.007       2.722
      2862.000      26.873      27.684     163.840       7.934     -999.25     -999.25     -999.25     -999.25      -1.480       3.455      -0.007       2.722
      2862.500      27.524      29.072     174.593       7.888     -999.25     -999.25     -999.25     -999.25      -1.450       3.507      -0.002       2.713
      2863.000      27.614      28.439     164.406       7.865     -999.25     -999.25     -999.25     -999.25      -1.440       3.530      -0.001       2.712
      2863.500      29.383      28.758     137.241       7.911     -999.25     -999.25     -999.25     -999.25      -1.480       3.504      -0.004       2.717
      2864.000      31.048      31.295     133.279       7.865     -999.25     -999.25     -999.25     -999.25      -1.480       3.447      -0.005       2.719
      2864.500      33.299      33.082     131.582       7.877     -999.25     -999.25     -999.25     -999.25      -1.500       3.356      -0.005       2.718
      2865.000      32.624      32.966     147.711       7.865     -999.25     -999.25     -999.25     -999.25      -1.500       3.273      -0.002       2.713
      2865.500      32.990      34.066     130.733       7.865     -999.25     -999.25     -999.25     -999.25      -1.490       3.195      -0.001       2.711
      2866.000      33.333      32.608     134.977       7.854     -999.25     -999.25     -999.25     -999.25      -1.520       3.159      -0.002       2.714
      2866.500      32.982      32.628     140.071       7.865     -999.25     -999.25     -999.25     -999.25      -1.520       3.186      -0.001       2.713
      2867.000      30.341      30.280     162.142       7.899     -999.25     -999.25     -999.25     -999.25      -1.520       3.282       0.005       2.702
