~Version Information
 VERS.                 2.0: 
 WRAP.                  NO: 
 END.                PETRA:GeoPLUS Corporation
~Well Information Block
#MNEM.UNIT       Data Type    Information
#---------    -------------   ---------------------------------
 STRT.F             37.0000:
 STOP.F           7042.5000:
 STEP.F              0.5000:
 NULL.              -999.25:
 COMP.                           : COMPANY
 FLD.       Weston-Jane Lew      : FIELD
 LOC.                            : LOCATION
 DATE.      02-JUL-2014          : DATE
 WELL.      4704105432           : Well Name
 LABL.      4704105432                       : Well Label
 APIN.      4704105432           : API Number
 UWI.       4704105432           : Unique Well Number
 NUMB.      33241                : Well Number
 OPER.      Dominion Exploration & Production : Operator Name
 LEAS.      W G Bennett          : Lease Name
~Parameter Block
#MNEM.UNIT           VALUE            Description
#---------    --------------------   ---------------------------------
 EKB.F                     1.0 : KB Elevation
~Curve Information Block
#MNEM.UNIT      API CODE      Curve Description
#---------    -------------   ---------------------------------
 DEPT.F                   00 000 00 00: Depth (MD)
 AT60.OHMM                00 001 00 00: Array Induction Two Foot Resistivity A60
 AT90.OHMM                00 002 00 00: Array Induction Two Foot Resistivity A90
 GR.GAPI                  00 003 00 00: Description
 HCAL.IN                  00 004 00 00: HRCC Cal. Caliper {F13.4}
 HCGR.GAPI                00 005 00 00: 
 HFK.CFCF                 00 006 00 00: HNGS Formation Potassium Concentration {
 HTHO.PPM                 00 007 00 00: HNGS Formation Thorium Concentration {F1
 HURA.PPM                 00 008 00 00: HNGS Formation Uranium Concentration {F1
 NPHI.CFCF                00 009 00 00: Thermal Neutron Porosity (Ratio Method)
 PEFZ.                    00 010 00 00: HRDD Standard Resolution Formation Photo
 PHID.PERC                00 011 00 00: Density Porosity
 RHOZ.G/C3                00 012 00 00: HRDD Standard Resolution Formation Densi
~A        DEPT        AT60        AT90          GR        HCAL        HCGR         HFK        HTHO        HURA        NPHI        PEFZ        PHID        RHOZ
        37.000      27.900      15.209      55.689       3.348     -999.25     -999.25     -999.25     -999.25       0.100      10.000       0.299       2.198
        37.500      27.900      15.209      55.277       3.348     -999.25     -999.25     -999.25     -999.25       0.100      10.000       0.299       2.198
        38.000      27.900      15.209      52.455       3.348     -999.25     -999.25     -999.25     -999.25       0.100      10.000       0.299       2.198
        38.500      27.900      15.209      50.758       3.348     -999.25     -999.25     -999.25     -999.25       0.100      10.000       0.299       2.198
        39.000      27.900      15.209      53.668       3.348     -999.25     -999.25     -999.25     -999.25       0.100      10.000       0.299       2.198
        39.500      27.900      15.209      53.660       3.348     -999.25     -999.25     -999.25     -999.25       0.100      10.000       0.299       2.198
        40.000      27.900      15.209      54.444       3.348     -999.25     -999.25     -999.25     -999.25       0.100      10.000       0.299       2.198
        40.500      27.900      15.209      53.984       3.348     -999.25     -999.25     -999.25     -999.25       0.100      10.000       0.299       2.198
        41.000      27.900      15.209      54.719       3.348     -999.25     -999.25     -999.25     -999.25       0.100      10.000       0.299       2.198
        41.500      27.900      15.209      50.087       3.348     -999.25     -999.25     -999.25     -999.25       0.100      10.000       0.299       2.198
        42.000      27.900      15.209      49.860       3.348     -999.25     -999.25     -999.25     -999.25       0.100      10.000       0.299       2.198
        42.500      27.900      15.209      52.286       3.348     -999.25     -999.25     -999.25     -999.25       0.100      10.000       0.299       2.198
        43.000      27.900      15.209      55.795       3.348     -999.25     -999.25     -999.25     -999.25       0.100      10.000       0.299       2.198
        43.500      27.900      15.209      54.663       3.348     -999.25     -999.25     -999.25     -999.25       0.100      10.000       0.292       2.212
        44.000      27.900      15.209      51.024       3.348     -999.25     -999.25     -999.25     -999.25       0.100      10.000       0.300       2.197
        44.500      27.901      15.209      51.784       3.348     -999.25     -999.25     -999.25     -999.25       0.100      10.000       0.299       2.198
        45.000      27.902      15.209      49.294       3.348     -999.25     -999.25     -999.25     -999.25       0.100      10.000       0.299       2.199
        45.500      27.903      15.209      49.901       3.348     -999.25     -999.25     -999.25     -999.25       0.100      10.000       0.291       2.213
        46.000      27.904      15.209      47.103       3.348     -999.25     -999.25     -999.25     -999.25       0.100      10.000       0.291       2.213
        46.500      27.905      15.209      50.046       3.348     -999.25     -999.25     -999.25     -999.25       0.100      10.000       0.291       2.212
        47.000      27.906      15.209      53.078       3.348     -999.25     -999.25     -999.25     -999.25       0.100      10.000       0.292       2.211
        47.500      27.906      15.209      58.511       3.348     -999.25     -999.25     -999.25     -999.25       0.100      10.000       0.301       2.196
        48.000      27.906      15.209      63.394       3.348     -999.25     -999.25     -999.25     -999.25       0.100      10.000       0.301       2.196
        48.500      27.906      15.210      64.728       3.348     -999.25     -999.25     -999.25     -999.25       0.100      10.000       0.309       2.182
        49.000      27.906      15.210      66.992       3.348     -999.25     -999.25     -999.25     -999.25       0.100      10.000       0.301       2.196
        49.500      27.905      15.210      65.901       3.348     -999.25     -999.25     -999.25     -999.25       0.100      10.000       0.301       2.195
        50.000      27.904      15.210      63.216       3.348     -999.25     -999.25     -999.25     -999.25       0.100      10.000       0.301       2.196
        50.500      27.907      15.210      59.255       3.348     -999.25     -999.25     -999.25     -999.25       0.100      10.000       0.308       2.183
        51.000      27.913      15.210      60.468       3.348     -999.25     -999.25     -999.25     -999.25       0.100      10.000       0.308       2.184
        51.500      27.920      15.211      62.392       3.348     -999.25     -999.25     -999.25     -999.25       0.100      10.000       0.299       2.199
        52.000      27.924      15.211      61.696       3.348     -999.25     -999.25     -999.25     -999.25       0.100      10.000       0.290       2.213
        52.500      27.923      15.211      58.907       3.348     -999.25     -999.25     -999.25     -999.25       0.100      10.000       0.290       2.213
        53.000      27.917      15.212      61.058       3.348     -999.25     -999.25     -999.25     -999.25       0.100      10.000       0.290       2.213
        53.500      27.910      15.212      61.422       3.348     -999.25     -999.25     -999.25     -999.25       0.100      10.000       0.290       2.213
        54.000      27.908      15.212      65.658       3.348     -999.25     -999.25     -999.25     -999.25       0.100      10.000       0.290       2.213
        54.500      27.910      15.212      66.450       3.348     -999.25     -999.25     -999.25     -999.25       0.100      10.000       0.290       2.213
        55.000      27.913      15.212      68.755       3.348     -999.25     -999.25     -999.25     -999.25       0.100      10.000       0.290       2.213
        55.500      27.915      15.213      64.680       3.348     -999.25     -999.25     -999.25     -999.25       0.100      10.000       0.290       2.213
        56.000      27.916      15.213      60.920       3.348     -999.25     -999.25     -999.25     -999.25       0.100      10.000       0.291       2.213
        56.500      27.917      15.213      53.280       3.348     -999.25     -999.25     -999.25     -999.25       0.100      10.000       0.291       2.213
        57.000      27.917      15.213      52.375       3.348     -999.25     -999.25     -999.25     -999.25       0.100      10.000       0.291       2.212
        57.500      27.917      15.213      56.983       3.348     -999.25     -999.25     -999.25     -999.25       0.100      10.000       0.292       2.210
        58.000      27.918      15.213      65.957       3.348     -999.25     -999.25     -999.25     -999.25       0.100      10.000       0.295       2.206
        58.500      27.918      15.213      70.032       3.348     -999.25     -999.25     -999.25     -999.25       0.100      10.000       0.304       2.190
        59.000      27.918      15.213      70.638       3.348     -999.25     -999.25     -999.25     -999.25       0.100      10.000       0.321       2.161
        59.500      27.919      15.213      68.463       3.348     -999.25     -999.25     -999.25     -999.25       0.100      10.000       0.336       2.136
        60.000      27.919      15.213      69.620       3.348     -999.25     -999.25     -999.25     -999.25       0.100      10.000       0.334       2.140
        60.500      27.919      15.213      68.051       3.348     -999.25     -999.25     -999.25     -999.25       0.100      10.000       0.316       2.170
        61.000      27.920      15.213      68.649       3.348     -999.25     -999.25     -999.25     -999.25       0.100      10.000       0.299       2.199
        61.500      27.920      15.213      70.105       3.348     -999.25     -999.25     -999.25     -999.25       0.100      10.000       0.290       2.213
        62.000      27.920      15.213      79.047       3.348     -999.25     -999.25     -999.25     -999.25       0.100      10.000       0.290       2.213
