~Version Information
 VERS.                 2.0: 
 WRAP.                  NO: 
 END.                PETRA:GeoPLUS Corporation
~Well Information Block
#MNEM.UNIT       Data Type    Information
#---------    -------------   ---------------------------------
 STRT.F             37.0000:
 STOP.F           7042.5000:
 STEP.F              0.5000:
 NULL.              -999.25:
 COMP.                           : COMPANY
 FLD.       Weston-Jane Lew      : FIELD
 LOC.                            : LOCATION
 DATE.      02-JUL-2014          : DATE
 WELL.      4704105432           : Well Name
 LABL.      4704105432                       : Well Label
 APIN.      4704105432           : API Number
 UWI.       4704105432           : Unique Well Number
 NUMB.      33241                : Well Number
 OPER.      Dominion Exploration & Production : Operator Name
 LEAS.      W G Bennett          : Lease Name
~Parameter Block
#MNEM.UNIT           VALUE            Description
#---------    --------------------   ---------------------------------
 EKB.F                     1.0 : KB Elevation
~Curve Information Block
#MNEM.UNIT      API CODE      Curve Description
#---------    -------------   ---------------------------------
 DEPT.F                   00 000 00 00: Depth (MD)
 AT60.OHMM                00 001 00 00: Array Induction Two Foot Resistivity A60
 AT90.OHMM                00 002 00 00: Array Induction Two Foot Resistivity A90
 GR.GAPI                  00 003 00 00: Description
 HCAL.IN                  00 004 00 00: HRCC Cal. Caliper {F13.4}
 HCGR.GAPI                00 005 00 00: 
 HFK.CFCF                 00 006 00 00: HNGS Formation Potassium Concentration {
 HTHO.PPM                 00 007 00 00: HNGS Formation Thorium Concentration {F1
 HURA.PPM                 00 008 00 00: HNGS Formation Uranium Concentration {F1
 NPHI.CFCF                00 009 00 00: Thermal Neutron Porosity (Ratio Method)
 PEFZ.                    00 010 00 00: HRDD Standard Resolution Formation Photo
 PHID.PERC                00 011 00 00: Density Porosity
 RHOZ.G/C3                00 012 00 00: HRDD Standard Resolution Formation Densi
~A        DEPT        AT60        AT90          GR        HCAL        HCGR         HFK        HTHO        HURA        NPHI        PEFZ        PHID        RHOZ
# ...
      1898.500      22.992      22.615     115.736       8.047     -999.25     -999.25     -999.25     -999.25      -1.600       2.699       0.021       2.674
      1899.000      23.989      23.558     117.433       8.104     -999.25     -999.25     -999.25     -999.25      -1.610       2.826       0.015       2.684
      1899.500      23.732      23.194     115.736       8.093     -999.25     -999.25     -999.25     -999.25      -1.630       2.957       0.021       2.674
      1900.000      22.822      22.296     132.431       8.116     -999.25     -999.25     -999.25     -999.25      -1.620       3.028       0.016       2.683
      1900.500      20.830      20.350     152.239       8.116     -999.25     -999.25     -999.25     -999.25      -1.600       3.098       0.009       2.694
      1901.000      18.990      18.624     159.879       8.138     -999.25     -999.25     -999.25     -999.25      -1.540       3.168       0.002       2.707
      1901.500      18.350      18.031     164.972       8.161     -999.25     -999.25     -999.25     -999.25      -1.540       3.250       0.001       2.709
      1902.000      20.142      19.881     155.917       8.138     -999.25     -999.25     -999.25     -999.25      -1.530       3.355       0.005       2.701
      1902.500      21.663      21.761     156.766       8.116     -999.25     -999.25     -999.25     -999.25      -1.560       3.477       0.008       2.696
      1903.000      20.778      20.567     140.071       8.138     -999.25     -999.25     -999.25     -999.25      -1.570       3.661       0.012       2.690
      1903.500      20.378      20.449     145.164       8.173     -999.25     -999.25     -999.25     -999.25      -1.580       3.790       0.007       2.698
      1904.000      19.479      19.787     138.939       8.184     -999.25     -999.25     -999.25     -999.25      -1.560       3.823       0.011       2.691
      1904.500      19.913      20.204     138.656       8.138     -999.25     -999.25     -999.25     -999.25      -1.550       3.679       0.016       2.682
      1905.000      20.975      21.392     136.958       8.138     -999.25     -999.25     -999.25     -999.25      -1.580       3.490       0.017       2.680
      1905.500      20.220      20.700     147.711       8.161     -999.25     -999.25     -999.25     -999.25      -1.590       3.428       0.007       2.697
      1906.000      18.993      19.271     171.763       8.161     -999.25     -999.25     -999.25     -999.25      -1.560       3.585      -0.001       2.712
      1906.500      19.234      19.527     184.780       8.230     -999.25     -999.25     -999.25     -999.25      -1.560       3.696      -0.010       2.727
      1907.000      21.068      21.362     159.879       8.184     -999.25     -999.25     -999.25     -999.25      -1.580       3.620      -0.007       2.722
      1907.500      21.422      21.274     126.771       8.195     -999.25     -999.25     -999.25     -999.25      -1.620       3.310      -0.001       2.713
      1908.000      17.044      17.109      89.419       8.207     -999.25     -999.25     -999.25     -999.25      -1.610       2.975       0.015       2.685
      1908.500      13.855      13.901      78.384       8.093     -999.25     -999.25     -999.25     -999.25      -1.550       2.685       0.032       2.656
      1909.000      11.225      11.200      77.252       8.082     -999.25     -999.25     -999.25     -999.25      -1.530       2.522       0.057       2.613
      1909.500       9.316       9.252      65.933       8.025     -999.25     -999.25     -999.25     -999.25      -1.540       2.456       0.082       2.570
      1910.000       8.996       8.948      73.573       7.990     -999.25     -999.25     -999.25     -999.25      -1.530       2.448       0.102       2.535
      1910.500       8.652       8.567      58.576       7.956     -999.25     -999.25     -999.25     -999.25      -1.520       2.431       0.110       2.522
      1911.000       8.540       8.426      66.499       7.956     -999.25     -999.25     -999.25     -999.25      -1.500       2.410       0.104       2.532
      1911.500      10.186       9.976      59.142       7.934     -999.25     -999.25     -999.25     -999.25      -1.500       2.415       0.094       2.549
      1912.000      12.425      12.283      63.386       7.911     -999.25     -999.25     -999.25     -999.25      -1.520       2.425       0.086       2.562
      1912.500      11.664      11.304      56.029       7.899     -999.25     -999.25     -999.25     -999.25      -1.530       2.438       0.091       2.555
      1913.000      11.530      11.580      59.425       7.865     -999.25     -999.25     -999.25     -999.25      -1.540       2.421       0.094       2.550
      1913.500      17.223      16.395      63.669       7.865     -999.25     -999.25     -999.25     -999.25      -1.590       2.421       0.092       2.552
      1914.000      22.998      21.993      98.191       7.888     -999.25     -999.25     -999.25     -999.25      -1.610       2.470       0.089       2.558
      1914.500      25.115      24.859     111.774       7.842     -999.25     -999.25     -999.25     -999.25      -1.580       2.515       0.078       2.577
      1915.000      26.735      27.502     118.848       7.842     -999.25     -999.25     -999.25     -999.25      -1.550       2.507       0.066       2.597
      1915.500      24.854      25.746      93.947       7.842     -999.25     -999.25     -999.25     -999.25      -1.550       2.452       0.060       2.607
      1916.000      21.962      22.117      86.024       7.865     -999.25     -999.25     -999.25     -999.25      -1.550       2.449       0.062       2.603
      1916.500      21.886      22.307      87.722       7.842     -999.25     -999.25     -999.25     -999.25      -1.530       2.546       0.065       2.599
      1917.000      26.159      26.542      87.156       7.865     -999.25     -999.25     -999.25     -999.25      -1.520       2.662       0.060       2.608
      1917.500      27.114      27.111      87.722       7.877     -999.25     -999.25     -999.25     -999.25      -1.530       2.737       0.055       2.617
      1918.000      26.848      26.219      84.892       7.911     -999.25     -999.25     -999.25     -999.25      -1.550       2.759       0.049       2.626
      1918.500      27.991      27.745      84.892       8.025     -999.25     -999.25     -999.25     -999.25      -1.580       2.787       0.048       2.628
      1919.000      28.539      28.402      85.175       7.854     -999.25     -999.25     -999.25     -999.25      -1.530       2.808       0.051       2.623
      1919.500      31.768      31.143      78.950       7.797     -999.25     -999.25     -999.25     -999.25      -1.540       2.791       0.048       2.629
      1920.000      30.548      30.350      81.213       7.797     -999.25     -999.25     -999.25     -999.25      -1.550       2.745       0.041       2.640
      1920.500      27.507      26.350      90.551       7.842     -999.25     -999.25     -999.25     -999.25      -1.600       2.745       0.032       2.656
      1921.000      25.620      25.444     104.417       7.820     -999.25     -999.25     -999.25     -999.25      -1.600       2.852       0.027       2.664
      1921.500      23.478      24.154     127.620       7.865     -999.25     -999.25     -999.25     -999.25      -1.580       3.082       0.014       2.686
      1922.000      20.265      20.210     155.351       7.911     -999.25     -999.25     -999.25     -999.25      -1.520       3.398      -0.001       2.711
      1922.500      16.325      16.674     185.063       7.956     -999.25     -999.25     -999.25     -999.25      -1.460       3.641      -0.009       2.725
      1923.000      13.368      13.579     194.118       8.002     -999.25     -999.25     -999.25     -999.25      -1.410       3.689      -0.005       2.719
      1923.500      14.647      14.676     168.085       8.025     -999.25     -999.25     -999.25     -999.25      -1.410       3.534       0.002       2.707
