~Version Information
 VERS.                 2.0: 
 WRAP.                  NO: 
 END.                PETRA:GeoPLUS Corporation
~Well Information Block
#MNEM.UNIT       Data Type    Information
#---------    -------------   ---------------------------------
 STRT.F             37.0000:
 STOP.F           7042.5000:
 STEP.F              0.5000:
 NULL.              -999.25:
 COMP.                           : COMPANY
 FLD.       Weston-Jane Lew      : FIELD
 LOC.                            : LOCATION
 DATE.      02-JUL-2014          : DATE
 WELL.      4704105432           : Well Name
 LABL.      4704105432                       : Well Label
 APIN.      4704105432           : API Number
 UWI.       4704105432           : Unique Well Number
 NUMB.      33241                : Well Number
 OPER.      Dominion Exploration & Production : Operator Name
 LEAS.      W G Bennett          : Lease Name
~Parameter Block
#MNEM.UNIT           VALUE            Description
#---------    --------------------   ---------------------------------
 EKB.F                     1.0 : KB Elevation
~Curve Information Block
#MNEM.UNIT      API CODE      Curve Description
#---------    -------------   ---------------------------------
 DEPT.F                   00 000 00 00: Depth (MD)
 AT60.OHMM                00 001 00 00: Array Induction Two Foot Resistivity A60
 AT90.OHMM                00 002 00 00: Array Induction Two Foot Resistivity A90
 GR.GAPI                  00 003 00 00: Description
 HCAL.IN                  00 004 00 00: HRCC Cal. Caliper {F13.4}
 HCGR.GAPI                00 005 00 00: 
 HFK.CFCF                 00 006 00 00: HNGS Formation Potassium Concentration {
 HTHO.PPM                 00 007 00 00: HNGS Formation Thorium Concentration {F1
 HURA.PPM                 00 008 00 00: HNGS Formation Uranium Concentration {F1
 NPHI.CFCF                00 009 00 00: Thermal Neutron Porosity (Ratio Method)
 PEFZ.                    00 010 00 00: HRDD Standard Resolution Formation Photo
 PHID.PERC                00 011 00 00: Density Porosity
 RHOZ.G/C3                00 012 00 00: HRDD Standard Resolution Formation Densi
~A        DEPT        AT60        AT90          GR        HCAL        HCGR         HFK        HTHO        HURA        NPHI        PEFZ        PHID        RHOZ
# ...
      6565.000      41.418      43.745     157.048       7.721     126.995       0.043      15.500       4.928      -1.320       3.549       0.025       2.667
      6565.500      42.276      43.960     157.897       7.675     125.863       0.042      15.581       5.267      -1.290       3.537       0.051       2.624
      6566.000      42.036      42.482     163.557       7.660     129.966       0.043      16.486       5.094      -1.340       3.503       0.075       2.582
      6566.500      37.780      39.161     158.180       7.683     135.726       0.045      17.247       5.001      -1.360       3.501       0.071       2.589
      6567.000      33.749      35.423     164.406       7.694     143.932       0.048      17.992       4.732      -1.400       3.510       0.042       2.638
      6567.500      35.377      37.009     168.367       7.694     148.330       0.049      18.728       4.652      -1.390       3.508       0.018       2.679
      6568.000      37.699      39.432     168.650       7.721     147.169       0.048      18.800       4.546      -1.380       3.508       0.003       2.706
      6568.500      37.877      39.468     170.914       7.706     141.902       0.046      18.599       4.691      -1.370       3.518       0.006       2.699
      6569.000      38.600      39.178     161.293       7.713     133.068       0.043      17.552       4.959      -1.370       3.537       0.017       2.680
      6569.500      39.452      39.164     158.463       7.736     129.271       0.042      16.912       4.937      -1.370       3.491       0.028       2.662
      6570.000      39.244      40.455     151.672       7.729     128.754       0.042      16.466       4.884      -1.370       3.415       0.035       2.649
      6570.500      38.261      39.250     161.293       7.721     131.890       0.043      17.056       5.091      -1.380       3.371       0.033       2.654
      6571.000      38.398      39.655     172.612       7.721     137.061       0.046      17.056       5.144      -1.420       3.369       0.022       2.673
      6571.500      37.166      38.254     172.612       7.789     138.136       0.047      16.758       5.328      -1.410       3.387       0.009       2.694
      6572.000      36.704      37.865     159.029       7.774     136.683       0.047      16.023       5.547      -1.380       3.370       0.004       2.704
      6572.500      39.722      41.215     147.710       7.786     132.515       0.046      15.458       5.689      -1.350       3.427       0.020       2.676
      6573.000      45.250      46.738     146.578       7.797     126.810       0.044      14.958       5.751      -1.360       3.524       0.046       2.632
      6573.500      45.238      46.454     167.518       7.729     121.996       0.042      14.298       5.822      -1.380       3.622       0.061       2.605
      6574.000      45.913      47.209     166.952       7.759     121.964       0.042      14.221       5.904      -1.400       3.683       0.059       2.609
      6574.500      47.176      47.929     173.178       7.774     127.013       0.044      14.873       6.010      -1.410       3.684       0.042       2.639
      6575.000      47.360      48.850     166.669       7.782     128.688       0.045      15.029       6.258      -1.400       3.659       0.027       2.663
      6575.500      47.217      49.232     167.235       7.850     128.771       0.044      15.257       6.280      -1.420       3.599       0.019       2.678
      6576.000      47.566      49.403     157.614       7.854     127.032       0.044      14.942       5.727      -1.420       3.563       0.021       2.674
      6576.500      48.471      50.332     146.579       7.786     121.639       0.042      14.454       5.477      -1.390       3.531       0.023       2.671
      6577.000      47.083      48.411     142.617       7.660     118.158       0.041      13.895       5.485      -1.340       3.508       0.021       2.674
      6577.500      44.816      46.121     146.295       7.698     115.696       0.040      13.700       5.238      -1.360       3.507       0.019       2.678
      6578.000      44.910      46.455     153.087       7.729     111.643       0.039      13.224       5.595      -1.380       3.496       0.018       2.680
      6578.500      46.548      47.888     146.295       7.744     111.819       0.039      13.303       5.050      -1.380       3.479       0.017       2.681
      6579.000      46.663      47.951     147.710       7.683     114.260       0.039      13.535       4.818      -1.350       3.424       0.014       2.686
      6579.500      46.509      47.741     132.430       7.744     117.387       0.041      13.820       4.856      -1.350       3.429       0.012       2.690
      6580.000      47.902      49.083     139.787       7.744     118.298       0.041      14.028       4.978      -1.360       3.409       0.012       2.690
      6580.500      49.530      50.792     129.034       7.751     121.783       0.042      14.582       4.823      -1.360       3.374       0.014       2.685
      6581.000      48.874      49.780     138.089       7.774     119.732       0.041      14.401       5.210      -1.380       3.336       0.014       2.686
      6581.500      48.055      48.726     144.315       7.797     121.587       0.041      15.147       5.171      -1.400       3.320       0.015       2.684
      6582.000      48.208      48.857     156.199       7.797     122.482       0.040      16.034       5.110      -1.400       3.367       0.018       2.679
      6582.500      48.652      49.232     170.914       7.797     121.640       0.039      16.236       5.274      -1.390       3.372       0.023       2.671
      6583.000      49.698      50.192     164.123       7.850     123.910       0.039      16.774       5.207      -1.400       3.430       0.030       2.658
      6583.500      49.975      50.858     161.293       7.820     128.976       0.040      17.779       5.023      -1.370       3.445       0.033       2.653
      6584.000      50.293      51.695     162.425       7.804     126.044       0.040      17.043       5.434      -1.360       3.470       0.039       2.643
      6584.500      50.759      52.319     176.007       7.842     124.750       0.040      16.856       5.616      -1.350       3.445       0.040       2.642
      6585.000      52.023      53.280     190.722       7.812     125.686       0.039      17.188       5.518      -1.360       3.442       0.041       2.640
      6585.500      51.718      53.146     174.310       7.812     129.618       0.041      17.558       5.501      -1.380       3.459       0.035       2.649
      6586.000      50.675      51.942     155.068       7.789     134.217       0.043      17.792       5.509      -1.400       3.497       0.020       2.676
      6586.500      49.574      51.048     140.919       7.675     136.058       0.043      18.245       5.176      -1.370       3.506       0.010       2.692
      6587.000      49.440      50.854     127.902       7.759     130.417       0.043      16.838       5.092      -1.400       3.540       0.012       2.690
      6587.500      49.487      51.173     134.694       7.729     122.157       0.041      15.328       4.721      -1.380       3.525       0.021       2.675
      6588.000      47.686      49.447     132.713       7.740     119.467       0.040      14.948       4.184      -1.390       3.542       0.028       2.663
      6588.500      46.052      47.600     142.334       7.691     119.103       0.040      15.021       4.239      -1.360       3.509       0.029       2.661
      6589.000      45.318      46.962     136.109       7.675     118.816       0.040      14.837       4.271      -1.360       3.489       0.030       2.658
      6589.500      45.426      46.823     134.694       7.683     123.707       0.041      15.682       4.073      -1.360       3.443       0.024       2.669
      6590.000      45.225      46.712     142.051       7.694     124.127       0.042      15.465       4.024      -1.370       3.446       0.020       2.676
