~Version Information
 VERS.                 2.0: 
 WRAP.                  NO: 
 END.                PETRA:GeoPLUS Corporation
~Well Information Block
#MNEM.UNIT       Data Type    Information
#---------    -------------   ---------------------------------
 STRT.F             37.0000:
 STOP.F           7042.5000:
 STEP.F              0.5000:
 NULL.              -999.25:
 COMP.                           : COMPANY
 FLD.       Weston-Jane Lew      : FIELD
 LOC.                            : LOCATION
 DATE.      02-JUL-2014          : DATE
 WELL.      4704105432           : Well Name
 LABL.      4704105432                       : Well Label
 APIN.      4704105432           : API Number
 UWI.       4704105432           : Unique Well Number
 NUMB.      33241                : Well Number
 OPER.      Dominion Exploration & Production : Operator Name
 LEAS.      W G Bennett          : Lease Name
~Parameter Block
#MNEM.UNIT           VALUE            Description
#---------    --------------------   ---------------------------------
 EKB.F                     1.0 : KB Elevation
~Curve Information Block
#MNEM.UNIT      API CODE      Curve Description
#---------    -------------   ---------------------------------
 DEPT.F                   00 000 00 00: Depth (MD)
 AT60.OHMM                00 001 00 00: Array Induction Two Foot Resistivity A60
 AT90.OHMM                00 002 00 00: Array Induction Two Foot Resistivity A90
 GR.GAPI                  00 003 00 00: Description
 HCAL.IN                  00 004 00 00: HRCC Cal. Caliper {F13.4}
 HCGR.GAPI                00 005 00 00: 
 HFK.CFCF                 00 006 00 00: HNGS Formation Potassium Concentration {
 HTHO.PPM                 00 007 00 00: HNGS Formation Thorium Concentration {F1
 HURA.PPM                 00 008 00 00: HNGS Formation Uranium Concentration {F1
 NPHI.CFCF                00 009 00 00: Thermal Neutron Porosity (Ratio Method)
 PEFZ.                    00 010 00 00: HRDD Standard Resolution Formation Photo
 PHID.PERC                00 011 00 00: Density Porosity
 RHOZ.G/C3                00 012 00 00: HRDD Standard Resolution Formation Densi
~A        DEPT        AT60        AT90          GR        HCAL        HCGR         HFK        HTHO        HURA        NPHI        PEFZ        PHID        RHOZ
# ...
      1439.500     855.008    1299.112      26.883       7.979     -999.25     -999.25     -999.25     -999.25      -1.780       4.217      -0.001       2.713
      1440.000     750.308    1060.535      27.449       7.979     -999.25     -999.25     -999.25     -999.25      -1.790       4.204      -0.005       2.719
      1440.500     650.220     982.088      32.542       8.002     -999.25     -999.25     -999.25     -999.25      -1.790       4.167      -0.012       2.730
      1441.000     605.527    1011.697      27.732       8.002     -999.25     -999.25     -999.25     -999.25      -1.780       4.127      -0.016       2.738
      1441.500     567.212    1029.176      24.336       7.990     -999.25     -999.25     -999.25     -999.25      -1.760       4.142      -0.013       2.732
      1442.000     408.283     664.226      18.960       8.002     -999.25     -999.25     -999.25     -999.25      -1.760       4.155      -0.011       2.728
      1442.500     332.551     494.832      28.581       8.002     -999.25     -999.25     -999.25     -999.25      -1.750       4.178      -0.009       2.725
      1443.000     330.087     423.499      28.015       8.002     -999.25     -999.25     -999.25     -999.25      -1.750       4.136      -0.013       2.733
      1443.500     249.735     355.977      27.732       8.025     -999.25     -999.25     -999.25     -999.25      -1.740       4.097      -0.015       2.735
      1444.000     205.190     237.584      20.941       8.025     -999.25     -999.25     -999.25     -999.25      -1.720       4.042      -0.016       2.738
      1444.500     172.813     194.422      23.770       8.047     -999.25     -999.25     -999.25     -999.25      -1.700       3.970      -0.021       2.745
      1445.000     132.178     139.858      32.542       8.059     -999.25     -999.25     -999.25     -999.25      -1.690       3.938      -0.023       2.749
      1445.500      94.000     105.918      33.108       8.025     -999.25     -999.25     -999.25     -999.25      -1.660       3.988      -0.017       2.739
      1446.000      82.590      88.773      31.411       8.070     -999.25     -999.25     -999.25     -999.25      -1.670       4.031      -0.012       2.730
      1446.500      73.038      79.252      29.430       8.025     -999.25     -999.25     -999.25     -999.25      -1.640       4.114      -0.009       2.726
      1447.000      59.391      63.004      28.298       8.025     -999.25     -999.25     -999.25     -999.25      -1.630       4.103      -0.009       2.725
      1447.500      52.590      54.687      28.298       8.025     -999.25     -999.25     -999.25     -999.25      -1.630       4.176      -0.001       2.712
      1448.000      51.756      54.460      19.243       8.002     -999.25     -999.25     -999.25     -999.25      -1.650       4.202       0.007       2.698
      1448.500      52.261      54.745      22.072       8.002     -999.25     -999.25     -999.25     -999.25      -1.660       4.306       0.011       2.691
      1449.000      52.101      54.032      18.960       8.002     -999.25     -999.25     -999.25     -999.25      -1.660       4.376       0.011       2.692
      1449.500      52.069      53.747      18.394       8.002     -999.25     -999.25     -999.25     -999.25      -1.660       4.415       0.009       2.695
      1450.000      51.661      54.821      18.960       8.002     -999.25     -999.25     -999.25     -999.25      -1.650       4.414       0.007       2.698
      1450.500      51.318      54.302      20.375       8.025     -999.25     -999.25     -999.25     -999.25      -1.650       4.310      -0.002       2.714
      1451.000      51.277      55.043      20.375       8.002     -999.25     -999.25     -999.25     -999.25      -1.640       4.275      -0.002       2.714
      1451.500      51.338      55.631      18.111       8.002     -999.25     -999.25     -999.25     -999.25      -1.650       4.241      -0.002       2.713
      1452.000      53.390      57.402      22.639       8.025     -999.25     -999.25     -999.25     -999.25      -1.660       4.302      -0.003       2.716
      1452.500      50.854      55.695      24.902       8.013     -999.25     -999.25     -999.25     -999.25      -1.660       4.308      -0.009       2.726
      1453.000      57.576      60.704      23.204       8.002     -999.25     -999.25     -999.25     -999.25      -1.670       4.250      -0.013       2.733
      1453.500      53.887      55.953      19.809       8.002     -999.25     -999.25     -999.25     -999.25      -1.660       4.215      -0.005       2.718
      1454.000      50.705      53.151      21.507       8.002     -999.25     -999.25     -999.25     -999.25      -1.650       4.244       0.006       2.701
      1454.500      49.860      49.887      21.507       8.025     -999.25     -999.25     -999.25     -999.25      -1.630       4.360       0.013       2.688
      1455.000      48.933      50.090      22.639       8.002     -999.25     -999.25     -999.25     -999.25      -1.630       4.419       0.018       2.680
      1455.500      47.691      49.822      22.072       8.025     -999.25     -999.25     -999.25     -999.25      -1.630       4.394       0.016       2.683
      1456.000      48.357      50.746      21.507       8.013     -999.25     -999.25     -999.25     -999.25      -1.640       4.339       0.016       2.683
      1456.500      51.613      55.177      21.224       8.025     -999.25     -999.25     -999.25     -999.25      -1.650       4.281       0.011       2.691
      1457.000      56.399      60.557      20.658       8.025     -999.25     -999.25     -999.25     -999.25      -1.660       4.278       0.009       2.695
      1457.500      62.289      67.836      22.921       7.979     -999.25     -999.25     -999.25     -999.25      -1.660       4.311       0.007       2.699
      1458.000      75.678      79.855      18.111       8.002     -999.25     -999.25     -999.25     -999.25      -1.680       4.353       0.006       2.700
      1458.500      98.095     102.866      19.243       8.002     -999.25     -999.25     -999.25     -999.25      -1.690       4.343       0.002       2.707
      1459.000     111.506     115.016      16.413       7.979     -999.25     -999.25     -999.25     -999.25      -1.700       4.223      -0.009       2.725
      1459.500     130.022     131.314      18.677       7.979     -999.25     -999.25     -999.25     -999.25      -1.710       4.106      -0.015       2.736
      1460.000     145.037     145.655      19.243       7.979     -999.25     -999.25     -999.25     -999.25      -1.730       4.029      -0.015       2.736
      1460.500     167.491     173.065      27.166       7.968     -999.25     -999.25     -999.25     -999.25      -1.710       3.982      -0.012       2.731
      1461.000     119.627     141.648      44.993       7.956     -999.25     -999.25     -999.25     -999.25      -1.680       3.879      -0.014       2.734
      1461.500      81.412      86.816      61.971       7.956     -999.25     -999.25     -999.25     -999.25      -1.630       3.722      -0.020       2.744
      1462.000      66.549      67.694      81.779       7.956     -999.25     -999.25     -999.25     -999.25      -1.620       3.562      -0.024       2.751
      1462.500      56.062      56.504      96.777       7.956     -999.25     -999.25     -999.25     -999.25      -1.600       3.407      -0.020       2.744
      1463.000      47.470      47.369     103.568       7.979     -999.25     -999.25     -999.25     -999.25      -1.600       3.277      -0.013       2.732
      1463.500      45.619      45.561     105.832       8.002     -999.25     -999.25     -999.25     -999.25      -1.590       3.194      -0.003       2.714
      1464.000      43.658      43.632     113.755       8.002     -999.25     -999.25     -999.25     -999.25      -1.580       3.163       0.005       2.702
      1464.500      37.890      38.236     122.810       8.002     -999.25     -999.25     -999.25     -999.25      -1.540       3.129       0.011       2.692
