~Version Information
 VERS.                 2.0: 
 WRAP.                  NO: 
 END.                PETRA:GeoPLUS Corporation
~Well Information Block
#MNEM.UNIT       Data Type    Information
#---------    -------------   ---------------------------------
 STRT.F             37.0000:
 STOP.F           7042.5000:
 STEP.F              0.5000:
 NULL.              -999.25:
 COMP.                           : COMPANY
 FLD.       Weston-Jane Lew      : FIELD
 LOC.                            : LOCATION
 DATE.      02-JUL-2014          : DATE
 WELL.      4704105432           : Well Name
 LABL.      4704105432                       : Well Label
 APIN.      4704105432           : API Number
 UWI.       4704105432           : Unique Well Number
 NUMB.      33241                : Well Number
 OPER.      Dominion Exploration & Production : Operator Name
 LEAS.      W G Bennett          : Lease Name
~Parameter Block
#MNEM.UNIT           VALUE            Description
#---------    --------------------   ---------------------------------
 EKB.F                     1.0 : KB Elevation
~Curve Information Block
#MNEM.UNIT      API CODE      Curve Description
#---------    -------------   ---------------------------------
 DEPT.F                   00 000 00 00: Depth (MD)
 AT60.OHMM                00 001 00 00: Array Induction Two Foot Resistivity A60
 AT90.OHMM                00 002 00 00: Array Induction Two Foot Resistivity A90
 GR.GAPI                  00 003 00 00: Description
 HCAL.IN                  00 004 00 00: HRCC Cal. Caliper {F13.4}
 HCGR.GAPI                00 005 00 00: 
 HFK.CFCF                 00 006 00 00: HNGS Formation Potassium Concentration {
 HTHO.PPM                 00 007 00 00: HNGS Formation Thorium Concentration {F1
 HURA.PPM                 00 008 00 00: HNGS Formation Uranium Concentration {F1
 NPHI.CFCF                00 009 00 00: Thermal Neutron Porosity (Ratio Method)
 PEFZ.                    00 010 00 00: HRDD Standard Resolution Formation Photo
 PHID.PERC                00 011 00 00: Density Porosity
 RHOZ.G/C3                00 012 00 00: HRDD Standard Resolution Formation Densi
~A        DEPT        AT60        AT90          GR        HCAL        HCGR         HFK        HTHO        HURA        NPHI        PEFZ        PHID        RHOZ
# ...
      3760.000      26.710      27.180     120.263       7.729     -999.25     -999.25     -999.25     -999.25      -1.380       3.272       0.007       2.699
      3760.500      27.124      27.047     124.791       7.774     -999.25     -999.25     -999.25     -999.25      -1.370       3.201       0.005       2.702
      3761.000      28.925      28.111     131.016       7.751     -999.25     -999.25     -999.25     -999.25      -1.380       3.165       0.000       2.711
      3761.500      31.074      29.376     152.805       7.774     -999.25     -999.25     -999.25     -999.25      -1.390       3.176      -0.009       2.726
      3762.000      32.415      30.232     162.143       7.774     -999.25     -999.25     -999.25     -999.25      -1.400       3.177      -0.015       2.735
      3762.500      31.218      28.443     148.560       7.820     -999.25     -999.25     -999.25     -999.25      -1.420       3.250      -0.012       2.731
      3763.000      28.718      27.060     138.939       7.820     -999.25     -999.25     -999.25     -999.25      -1.420       3.360      -0.004       2.717
      3763.500      27.174      26.024     146.013       7.820     -999.25     -999.25     -999.25     -999.25      -1.400       3.473      -0.008       2.723
      3764.000      22.760      23.502     153.371       7.842     -999.25     -999.25     -999.25     -999.25      -1.390       3.499      -0.021       2.747
      3764.500      21.335      23.074     157.332       7.820     -999.25     -999.25     -999.25     -999.25      -1.390       3.453      -0.033       2.766
      3765.000      24.585      25.955     157.332       7.911     -999.25     -999.25     -999.25     -999.25      -1.430       3.386      -0.028       2.757
      3765.500      28.680      29.428     152.239       7.865     -999.25     -999.25     -999.25     -999.25      -1.450       3.313      -0.017       2.740
      3766.000      29.261      30.487     142.618       7.956     -999.25     -999.25     -999.25     -999.25      -1.510       3.324      -0.007       2.722
      3766.500      31.802      34.520     130.167       7.934     -999.25     -999.25     -999.25     -999.25      -1.530       3.453      -0.002       2.713
      3767.000      42.128      42.661     125.074       7.911     -999.25     -999.25     -999.25     -999.25      -1.520       3.589      -0.002       2.714
      3767.500      28.397      29.002     121.112       7.911     -999.25     -999.25     -999.25     -999.25      -1.510       3.667       0.000       2.710
      3768.000      22.556      22.819     128.469       7.888     -999.25     -999.25     -999.25     -999.25      -1.470       3.657       0.007       2.699
      3768.500      23.227      23.182     152.239       7.842     -999.25     -999.25     -999.25     -999.25      -1.450       3.575       0.013       2.688
      3769.000      25.098      24.834     166.953       7.888     -999.25     -999.25     -999.25     -999.25      -1.460       3.473       0.015       2.684
      3769.500      28.397      28.843     173.461       7.842     -999.25     -999.25     -999.25     -999.25      -1.460       3.423       0.017       2.680
      3770.000      26.541      25.902     163.840       7.888     -999.25     -999.25     -999.25     -999.25      -1.480       3.451       0.014       2.687
      3770.500      24.719      24.197     159.879       7.865     -999.25     -999.25     -999.25     -999.25      -1.450       3.490       0.009       2.695
      3771.000      22.333      21.986     155.634       7.911     -999.25     -999.25     -999.25     -999.25      -1.460       3.559       0.000       2.710
      3771.500      22.204      22.346     168.651       7.911     -999.25     -999.25     -999.25     -999.25      -1.450       3.658       0.005       2.702
      3772.000      22.200      22.748     179.404       7.888     -999.25     -999.25     -999.25     -999.25      -1.430       3.742       0.007       2.699
      3772.500      21.511      22.279     185.346       7.911     -999.25     -999.25     -999.25     -999.25      -1.430       3.713       0.001       2.709
      3773.000      20.725      21.397     185.346       7.877     -999.25     -999.25     -999.25     -999.25      -1.390       3.627      -0.010       2.727
      3773.500      21.767      23.092     188.742       7.888     -999.25     -999.25     -999.25     -999.25      -1.420       3.537      -0.015       2.736
      3774.000      22.808      23.490     184.497       7.934     -999.25     -999.25     -999.25     -999.25      -1.440       3.419      -0.017       2.740
      3774.500      23.971      24.486     179.970       7.934     -999.25     -999.25     -999.25     -999.25      -1.460       3.289      -0.017       2.739
      3775.000      25.264      24.777     172.895       7.934     -999.25     -999.25     -999.25     -999.25      -1.460       3.218      -0.013       2.732
      3775.500      25.046      25.388     172.330       7.934     -999.25     -999.25     -999.25     -999.25      -1.460       3.238      -0.007       2.723
      3776.000      25.207      25.438     176.857       7.922     -999.25     -999.25     -999.25     -999.25      -1.470       3.284      -0.006       2.720
      3776.500      24.976      25.450     174.310       7.934     -999.25     -999.25     -999.25     -999.25      -1.460       3.290      -0.012       2.731
      3777.000      24.400      25.101     176.008       7.911     -999.25     -999.25     -999.25     -999.25      -1.450       3.305      -0.011       2.728
      3777.500      23.496      24.407     166.387       7.934     -999.25     -999.25     -999.25     -999.25      -1.460       3.340      -0.007       2.721
      3778.000      22.526      23.520     170.915       7.911     -999.25     -999.25     -999.25     -999.25      -1.450       3.406      -0.002       2.713
      3778.500      24.183      25.075     163.840       7.922     -999.25     -999.25     -999.25     -999.25      -1.460       3.434      -0.001       2.712
      3779.000      26.277      27.786     162.143       7.911     -999.25     -999.25     -999.25     -999.25      -1.440       3.426       0.001       2.709
      3779.500      26.636      27.548     147.994       7.911     -999.25     -999.25     -999.25     -999.25      -1.470       3.382      -0.002       2.714
      3780.000      27.555      27.533     152.239       7.911     -999.25     -999.25     -999.25     -999.25      -1.480       3.355      -0.005       2.718
      3780.500      30.609      29.862     145.447       7.934     -999.25     -999.25     -999.25     -999.25      -1.510       3.346      -0.008       2.724
      3781.000      31.539      30.663     146.013       7.911     -999.25     -999.25     -999.25     -999.25      -1.470       3.343      -0.005       2.718
      3781.500      31.321      29.073     138.656       7.934     -999.25     -999.25     -999.25     -999.25      -1.460       3.363       0.000       2.710
      3782.000      29.282      28.585     140.637       7.956     -999.25     -999.25     -999.25     -999.25      -1.450       3.404       0.002       2.707
      3782.500      29.308      29.126     144.598       7.968     -999.25     -999.25     -999.25     -999.25      -1.460       3.538       0.012       2.690
      3783.000      29.274      29.479     152.522       7.979     -999.25     -999.25     -999.25     -999.25      -1.500       3.562       0.012       2.690
      3783.500      28.801      29.157     162.426       7.956     -999.25     -999.25     -999.25     -999.25      -1.500       3.559       0.016       2.682
      3784.000      26.584      27.148     166.670       7.911     -999.25     -999.25     -999.25     -999.25      -1.500       3.449       0.004       2.703
      3784.500      23.886      24.565     164.972       7.877     -999.25     -999.25     -999.25     -999.25      -1.460       3.456       0.008       2.697
      3785.000      25.406      25.917     155.917       7.888     -999.25     -999.25     -999.25     -999.25      -1.440       3.505       0.014       2.686
