~Version Information
 VERS.                 2.0: 
 WRAP.                  NO: 
 END.                PETRA:GeoPLUS Corporation
~Well Information Block
#MNEM.UNIT       Data Type    Information
#---------    -------------   ---------------------------------
 STRT.F             37.0000:
 STOP.F           7042.5000:
 STEP.F              0.5000:
 NULL.              -999.25:
 COMP.                           : COMPANY
 FLD.       Weston-Jane Lew      : FIELD
 LOC.                            : LOCATION
 DATE.      02-JUL-2014          : DATE
 WELL.      4704105432           : Well Name
 LABL.      4704105432                       : Well Label
 APIN.      4704105432           : API Number
 UWI.       4704105432           : Unique Well Number
 NUMB.      33241                : Well Number
 OPER.      Dominion Exploration & Production : Operator Name
 LEAS.      W G Bennett          : Lease Name
~Parameter Block
#MNEM.UNIT           VALUE            Description
#---------    --------------------   ---------------------------------
 EKB.F                     1.0 : KB Elevation
~Curve Information Block
#MNEM.UNIT      API CODE      Curve Description
#---------    -------------   ---------------------------------
 DEPT.F                   00 000 00 00: Depth (MD)
 AT60.OHMM                00 001 00 00: Array Induction Two Foot Resistivity A60
 AT90.OHMM                00 002 00 00: Array Induction Two Foot Resistivity A90
 GR.GAPI                  00 003 00 00: Description
 HCAL.IN                  00 004 00 00: HRCC Cal. Caliper {F13.4}
 HCGR.GAPI                00 005 00 00: 
 HFK.CFCF                 00 006 00 00: HNGS Formation Potassium Concentration {
 HTHO.PPM                 00 007 00 00: HNGS Formation Thorium Concentration {F1
 HURA.PPM                 00 008 00 00: HNGS Formation Uranium Concentration {F1
 NPHI.CFCF                00 009 00 00: Thermal Neutron Porosity (Ratio Method)
 PEFZ.                    00 010 00 00: HRDD Standard Resolution Formation Photo
 PHID.PERC                00 011 00 00: Density Porosity
 RHOZ.G/C3                00 012 00 00: HRDD Standard Resolution Formation Densi
~A        DEPT        AT60        AT90          GR        HCAL        HCGR         HFK        HTHO        HURA        NPHI        PEFZ        PHID        RHOZ
# ...
       980.500      21.443      12.013      97.342       3.333     -999.25     -999.25     -999.25     -999.25       0.160      10.000       0.177       2.407
       981.000      20.373      11.235     104.134       3.356     -999.25     -999.25     -999.25     -999.25       0.140      10.000       0.172       2.417
       981.500      20.453      10.601     100.738       3.356     -999.25     -999.25     -999.25     -999.25       0.150      10.000       0.165       2.428
       982.000      21.508      10.030      95.079       3.333     -999.25     -999.25     -999.25     -999.25       0.180      10.000       0.166       2.427
       982.500      26.102       9.963      91.117       3.356     -999.25     -999.25     -999.25     -999.25       0.180      10.000       0.203       2.362
       983.000      42.652       9.013      88.287       3.333     -999.25     -999.25     -999.25     -999.25       0.190      10.000       0.196       2.375
       983.500      29.510       9.311      80.930       3.356     -999.25     -999.25     -999.25     -999.25       0.180      10.000       0.192       2.382
       984.000      15.684       8.383      74.988       3.333     -999.25     -999.25     -999.25     -999.25       0.150      10.000       0.153       2.448
       984.500       9.913       5.852      70.460       3.333     -999.25     -999.25     -999.25     -999.25       0.100      10.000       0.160       2.437
       985.000      13.067      10.511      65.933       3.356     -999.25     -999.25     -999.25     -999.25       0.050      10.000       0.164       2.430
       985.500       5.234       4.203      65.084       3.333     -999.25     -999.25     -999.25     -999.25       0.050      10.000       0.177       2.408
       986.000       2.368       1.837      62.820       3.310     -999.25     -999.25     -999.25     -999.25      -0.080      10.000       0.198       2.372
       986.500       1.663       1.596      61.122       3.356     -999.25     -999.25     -999.25     -999.25      -0.270      10.000       0.216       2.341
       987.000       6.637       6.200      62.254       3.356     -999.25     -999.25     -999.25     -999.25      -0.070      10.000       0.218       2.337
       987.500       8.433       7.741      60.839       3.356     -999.25     -999.25     -999.25     -999.25       0.140      10.000       0.224       2.328
       988.000      11.195       7.975      64.801       3.356     -999.25     -999.25     -999.25     -999.25       0.350       9.994       0.239       2.302
       988.500      10.226       7.939      60.839       3.356     -999.25     -999.25     -999.25     -999.25       0.180       9.956       0.254       2.276
       989.000      13.743      11.929      73.573       3.356     -999.25     -999.25     -999.25     -999.25       0.090       9.914       0.256       2.273
       989.500      17.551       8.725      82.062       3.356     -999.25     -999.25     -999.25     -999.25       0.100       9.879       0.256       2.273
       990.000      22.451      11.663      88.287       3.356     -999.25     -999.25     -999.25     -999.25       0.090       9.877       0.259       2.268
       990.500      28.447      14.411      82.062       3.356     -999.25     -999.25     -999.25     -999.25       0.090       9.910       0.278       2.235
       991.000      39.160      17.539      77.535       3.356     -999.25     -999.25     -999.25     -999.25       0.070       9.937       0.293       2.210
       991.500      49.142      18.762      73.290       3.333     -999.25     -999.25     -999.25     -999.25       0.140       9.966       0.308       2.184
       992.000      53.729      18.299      70.602       3.356     -999.25     -999.25     -999.25     -999.25       0.190       9.975       0.310       2.179
       992.500      52.009      17.518      59.000       3.356     -999.25     -999.25     -999.25     -999.25       0.180       9.977       0.284       2.224
       993.000      46.141      16.918      55.887       3.333     -999.25     -999.25     -999.25     -999.25       0.190       9.988       0.252       2.279
       993.500      40.501      16.623      67.065       3.333     -999.25     -999.25     -999.25     -999.25       0.180       9.988       0.224       2.327
       994.000      36.053      16.397      69.611       3.356     -999.25     -999.25     -999.25     -999.25       0.230      10.000       0.221       2.333
       994.500      32.664      15.960      64.235       3.333     -999.25     -999.25     -999.25     -999.25       0.230      10.000       0.221       2.332
       995.000      30.032      15.226      44.993       3.356     -999.25     -999.25     -999.25     -999.25       0.200      10.000       0.214       2.344
       995.500      28.107      14.351      43.295       3.356     -999.25     -999.25     -999.25     -999.25       0.150      10.000       0.226       2.323
       996.000      27.022      13.593      41.314       3.333     -999.25     -999.25     -999.25     -999.25       0.070      10.000       0.244       2.294
       996.500      27.031      13.132      48.955       3.333     -999.25     -999.25     -999.25     -999.25       0.060      10.000       0.244       2.293
       997.000      28.398      12.983      51.784       3.333     -999.25     -999.25     -999.25     -999.25       0.030      10.000       0.224       2.327
       997.500      31.395      13.036      59.707       3.356     -999.25     -999.25     -999.25     -999.25       0.020      10.000       0.202       2.364
       998.000      37.523      13.324      67.348       3.333     -999.25     -999.25     -999.25     -999.25       0.010      10.000       0.197       2.372
       998.500      45.012      13.849      73.007       3.356     -999.25     -999.25     -999.25     -999.25      -0.020      10.000       0.194       2.378
       999.000      52.764      16.737      84.326       3.356     -999.25     -999.25     -999.25     -999.25       0.000      10.000       0.188       2.389
       999.500      72.983      19.639      91.683       3.356     -999.25     -999.25     -999.25     -999.25       0.040       9.999       0.190       2.385
      1000.000     229.809      15.230     102.436       3.356     -999.25     -999.25     -999.25     -999.25       0.110       9.968       0.208       2.354
      1000.500     178.191      47.589     101.870       3.356     -999.25     -999.25     -999.25     -999.25       0.130       9.905       0.223       2.329
      1001.000      28.747      14.506     102.153       3.333     -999.25     -999.25     -999.25     -999.25       0.150       9.839       0.231       2.316
      1001.500      36.244      21.179     108.944       3.333     -999.25     -999.25     -999.25     -999.25       0.090       9.850       0.237       2.305
      1002.000      12.103       9.220     117.433       3.333     -999.25     -999.25     -999.25     -999.25       0.080       9.878       0.251       2.281
      1002.500       8.967       8.014     114.038       3.356     -999.25     -999.25     -999.25     -999.25       0.070       9.935       0.267       2.253
      1003.000      46.215      23.541     104.417       3.356     -999.25     -999.25     -999.25     -999.25       0.100       9.954       0.261       2.265
      1003.500      34.100      19.303     105.549       3.356     -999.25     -999.25     -999.25     -999.25       0.170       9.958       0.254       2.276
      1004.000      39.972      15.426     106.398       3.356     -999.25     -999.25     -999.25     -999.25       0.140       9.955       0.262       2.262
      1004.500      43.522      16.520     118.848       3.356     -999.25     -999.25     -999.25     -999.25       0.090       9.939       0.275       2.239
      1005.000      52.936      15.286     118.282       3.333     -999.25     -999.25     -999.25     -999.25       0.030       9.949       0.293       2.208
      1005.500      51.756      14.780     125.074       3.333     -999.25     -999.25     -999.25     -999.25       0.110       9.945       0.306       2.187
