~Version Information
 VERS.                 2.0: 
 WRAP.                  NO: 
 END.                PETRA:GeoPLUS Corporation
~Well Information Block
#MNEM.UNIT       Data Type    Information
#---------    -------------   ---------------------------------
 STRT.F             37.0000:
 STOP.F           7042.5000:
 STEP.F              0.5000:
 NULL.              -999.25:
 COMP.                           : COMPANY
 FLD.       Weston-Jane Lew      : FIELD
 LOC.                            : LOCATION
 DATE.      02-JUL-2014          : DATE
 WELL.      4704105432           : Well Name
 LABL.      4704105432                       : Well Label
 APIN.      4704105432           : API Number
 UWI.       4704105432           : Unique Well Number
 NUMB.      33241                : Well Number
 OPER.      Dominion Exploration & Production : Operator Name
 LEAS.      W G Bennett          : Lease Name
~Parameter Block
#MNEM.UNIT           VALUE            Description
#---------    --------------------   ---------------------------------
 EKB.F                     1.0 : KB Elevation
~Curve Information Block
#MNEM.UNIT      API CODE      Curve Description
#---------    -------------   ---------------------------------
 DEPT.F                   00 000 00 00: Depth (MD)
 AT60.OHMM                00 001 00 00: Array Induction Two Foot Resistivity A60
 AT90.OHMM                00 002 00 00: Array Induction Two Foot Resistivity A90
 GR.GAPI                  00 003 00 00: Description
 HCAL.IN                  00 004 00 00: HRCC Cal. Caliper {F13.4}
 HCGR.GAPI                00 005 00 00: 
 HFK.CFCF                 00 006 00 00: HNGS Formation Potassium Concentration {
 HTHO.PPM                 00 007 00 00: HNGS Formation Thorium Concentration {F1
 HURA.PPM                 00 008 00 00: HNGS Formation Uranium Concentration {F1
 NPHI.CFCF                00 009 00 00: Thermal Neutron Porosity (Ratio Method)
 PEFZ.                    00 010 00 00: HRDD Standard Resolution Formation Photo
 PHID.PERC                00 011 00 00: Density Porosity
 RHOZ.G/C3                00 012 00 00: HRDD Standard Resolution Formation Densi
~A        DEPT        AT60        AT90          GR        HCAL        HCGR         HFK        HTHO        HURA        NPHI        PEFZ        PHID        RHOZ
# ...
      4219.000      27.885      30.069     146.013       7.934     -999.25     -999.25     -999.25     -999.25      -1.490       3.316       0.014       2.686
      4219.500      28.951      30.404     136.958       7.911     -999.25     -999.25     -999.25     -999.25      -1.470       3.360       0.011       2.692
      4220.000      30.285      31.538     134.129       7.911     -999.25     -999.25     -999.25     -999.25      -1.480       3.451       0.015       2.685
      4220.500      29.490      32.095     128.469       7.911     -999.25     -999.25     -999.25     -999.25      -1.480       3.525       0.021       2.674
      4221.000      28.860      29.697     130.733       7.911     -999.25     -999.25     -999.25     -999.25      -1.470       3.567       0.025       2.667
      4221.500      26.944      28.023     138.656       7.911     -999.25     -999.25     -999.25     -999.25      -1.450       3.590       0.030       2.659
      4222.000      26.302      26.857     153.653       7.911     -999.25     -999.25     -999.25     -999.25      -1.440       3.573       0.033       2.653
      4222.500      27.786      28.364     170.066       7.888     -999.25     -999.25     -999.25     -999.25      -1.430       3.519       0.037       2.647
      4223.000      26.062      26.671     170.066       7.911     -999.25     -999.25     -999.25     -999.25      -1.460       3.448       0.042       2.639
      4223.500      27.146      27.276     162.426       7.888     -999.25     -999.25     -999.25     -999.25      -1.480       3.393       0.046       2.631
      4224.000      23.167      23.910     142.618       7.899     -999.25     -999.25     -999.25     -999.25      -1.510       3.362       0.047       2.630
      4224.500      24.875      25.534     136.958       7.865     -999.25     -999.25     -999.25     -999.25      -1.490       3.309       0.042       2.638
      4225.000      31.284      31.073     128.469       7.877     -999.25     -999.25     -999.25     -999.25      -1.470       3.296       0.039       2.643
      4225.500      30.542      31.394     117.716       7.865     -999.25     -999.25     -999.25     -999.25      -1.440       3.298       0.036       2.649
      4226.000      33.840      34.146     112.057       7.899     -999.25     -999.25     -999.25     -999.25      -1.440       3.307       0.037       2.647
      4226.500      40.804      37.079     101.870       7.911     -999.25     -999.25     -999.25     -999.25      -1.470       3.301       0.032       2.655
      4227.000      50.973      50.427     104.134       7.899     -999.25     -999.25     -999.25     -999.25      -1.490       3.300       0.029       2.660
      4227.500      41.876      39.851      97.343       7.911     -999.25     -999.25     -999.25     -999.25      -1.520       3.291       0.021       2.674
      4228.000      31.293      29.176     111.491       7.888     -999.25     -999.25     -999.25     -999.25      -1.500       3.297       0.027       2.664
      4228.500      26.778      26.462     120.546       7.922     -999.25     -999.25     -999.25     -999.25      -1.480       3.294       0.040       2.642
      4229.000      26.678      26.630     129.884       7.956     -999.25     -999.25     -999.25     -999.25      -1.480       3.344       0.039       2.643
      4229.500      27.500      28.565     137.241       7.945     -999.25     -999.25     -999.25     -999.25      -1.480       3.342       0.032       2.655
      4230.000      27.810      27.651     135.543       7.956     -999.25     -999.25     -999.25     -999.25      -1.500       3.324       0.027       2.663
      4230.500      26.281      26.540     131.299       7.956     -999.25     -999.25     -999.25     -999.25      -1.490       3.303       0.033       2.654
      4231.000      25.146      25.313     130.733       7.934     -999.25     -999.25     -999.25     -999.25      -1.450       3.325       0.020       2.676
      4231.500      25.445      25.473     136.958       7.968     -999.25     -999.25     -999.25     -999.25      -1.440       3.374       0.005       2.701
      4232.000      25.897      25.760     135.826       7.956     -999.25     -999.25     -999.25     -999.25      -1.420       3.418       0.004       2.703
      4232.500      29.767      30.483     129.601       7.956     -999.25     -999.25     -999.25     -999.25      -1.450       3.476       0.006       2.699
      4233.000      33.483      36.392     123.942       7.979     -999.25     -999.25     -999.25     -999.25      -1.480       3.463       0.013       2.687
      4233.500      30.100      31.186     130.167       7.934     -999.25     -999.25     -999.25     -999.25      -1.480       3.399       0.007       2.698
      4234.000      29.056      30.262     130.733       7.956     -999.25     -999.25     -999.25     -999.25      -1.500       3.349       0.023       2.670
      4234.500      27.256      28.380     124.508       7.956     -999.25     -999.25     -999.25     -999.25      -1.510       3.342       0.021       2.673
      4235.000      28.294      29.107     131.299       7.979     -999.25     -999.25     -999.25     -999.25      -1.510       3.394       0.021       2.674
      4235.500      22.972      23.884     134.694       7.979     -999.25     -999.25     -999.25     -999.25      -1.500       3.465       0.005       2.701
      4236.000      22.960      23.992     153.936       8.002     -999.25     -999.25     -999.25     -999.25      -1.500       3.526       0.015       2.684
      4236.500      28.038      27.785     159.030       8.002     -999.25     -999.25     -999.25     -999.25      -1.510       3.543       0.022       2.673
      4237.000      28.202      31.056     169.783       7.945     -999.25     -999.25     -999.25     -999.25      -1.510       3.469       0.022       2.673
      4237.500      27.631      27.905     162.709       7.956     -999.25     -999.25     -999.25     -999.25      -1.490       3.396       0.006       2.700
      4238.000      28.246      26.890     158.464       7.934     -999.25     -999.25     -999.25     -999.25      -1.490       3.311       0.001       2.709
      4238.500      30.015      29.271     133.280       7.934     -999.25     -999.25     -999.25     -999.25      -1.490       3.261       0.004       2.703
      4239.000      31.854      31.237     123.942       7.956     -999.25     -999.25     -999.25     -999.25      -1.540       3.227       0.003       2.705
      4239.500      31.709      30.909     116.867       7.911     -999.25     -999.25     -999.25     -999.25      -1.530       3.226       0.009       2.695
      4240.000      30.528      31.447     135.826       7.934     -999.25     -999.25     -999.25     -999.25      -1.530       3.247       0.016       2.683
      4240.500      29.448      29.266     143.467       7.934     -999.25     -999.25     -999.25     -999.25      -1.490       3.284       0.006       2.699
      4241.000      27.642      26.328     149.126       7.968     -999.25     -999.25     -999.25     -999.25      -1.490       3.297      -0.006       2.720
      4241.500      28.384      28.146     145.164       7.979     -999.25     -999.25     -999.25     -999.25      -1.490       3.241      -0.008       2.723
      4242.000      28.744      29.343     140.354       7.979     -999.25     -999.25     -999.25     -999.25      -1.490       3.202       0.011       2.692
      4242.500      30.672      31.481     136.675       7.934     -999.25     -999.25     -999.25     -999.25      -1.470       3.217       0.024       2.669
      4243.000      29.823      31.353     131.582       7.911     -999.25     -999.25     -999.25     -999.25      -1.460       3.258       0.027       2.663
      4243.500      28.478      30.431     138.373       7.911     -999.25     -999.25     -999.25     -999.25      -1.470       3.278       0.032       2.656
      4244.000      26.506      28.991     142.618       7.911     -999.25     -999.25     -999.25     -999.25      -1.480       3.247       0.020       2.676
