~Version Information
 VERS.                 2.0: 
 WRAP.                  NO: 
 END.                PETRA:GeoPLUS Corporation
~Well Information Block
#MNEM.UNIT       Data Type    Information
#---------    -------------   ---------------------------------
 STRT.F             37.0000:
 STOP.F           7042.5000:
 STEP.F              0.5000:
 NULL.              -999.25:
 COMP.                           : COMPANY
 FLD.       Weston-Jane Lew      : FIELD
 LOC.                            : LOCATION
 DATE.      02-JUL-2014          : DATE
 WELL.      4704105432           : Well Name
 LABL.      4704105432                       : Well Label
 APIN.      4704105432           : API Number
 UWI.       4704105432           : Unique Well Number
 NUMB.      33241                : Well Number
 OPER.      Dominion Exploration & Production : Operator Name
 LEAS.      W G Bennett          : Lease Name
~Parameter Block
#MNEM.UNIT           VALUE            Description
#---------    --------------------   ---------------------------------
 EKB.F                     1.0 : KB Elevation
~Curve Information Block
#MNEM.UNIT      API CODE      Curve Description
#---------    -------------   ---------------------------------
 DEPT.F                   00 000 00 00: Depth (MD)
 AT60.OHMM                00 001 00 00: Array Induction Two Foot Resistivity A60
 AT90.OHMM                00 002 00 00: Array Induction Two Foot Resistivity A90
 GR.GAPI                  00 003 00 00: Description
 HCAL.IN                  00 004 00 00: HRCC Cal. Caliper {F13.4}
 HCGR.GAPI                00 005 00 00: 
 HFK.CFCF                 00 006 00 00: HNGS Formation Potassium Concentration {
 HTHO.PPM                 00 007 00 00: HNGS Formation Thorium Concentration {F1
 HURA.PPM                 00 008 00 00: HNGS Formation Uranium Concentration {F1
 NPHI.CFCF                00 009 00 00: Thermal Neutron Porosity (Ratio Method)
 PEFZ.                    00 010 00 00: HRDD Standard Resolution Formation Photo
 PHID.PERC                00 011 00 00: Density Porosity
 RHOZ.G/C3                00 012 00 00: HRDD Standard Resolution Formation Densi
~A        DEPT        AT60        AT90          GR        HCAL        HCGR         HFK        HTHO        HURA        NPHI        PEFZ        PHID        RHOZ
# ...
      4703.500      25.409      28.278     163.557       7.820     -999.25     -999.25     -999.25     -999.25      -1.380       3.423       0.002       2.706
      4704.000      24.559      26.660     155.634       7.797     -999.25     -999.25     -999.25     -999.25      -1.380       3.485       0.005       2.701
      4704.500      24.071      26.419     143.749       7.820     -999.25     -999.25     -999.25     -999.25      -1.390       3.569       0.012       2.690
      4705.000      25.610      28.522     140.354       7.820     -999.25     -999.25     -999.25     -999.25      -1.390       3.583       0.011       2.691
      4705.500      27.288      29.866     142.617       7.820     -999.25     -999.25     -999.25     -999.25      -1.410       3.534       0.007       2.698
      4706.000      29.064      30.871     131.299       7.865     -999.25     -999.25     -999.25     -999.25      -1.430       3.454       0.003       2.705
      4706.500      29.199      30.586     135.543       7.865     -999.25     -999.25     -999.25     -999.25      -1.430       3.398       0.004       2.703
      4707.000      30.228      31.139     139.505       7.842     -999.25     -999.25     -999.25     -999.25      -1.400       3.402       0.009       2.694
      4707.500      30.799      31.060     151.956       7.911     -999.25     -999.25     -999.25     -999.25      -1.460       3.398       0.008       2.696
      4708.000      31.779      31.776     154.502       7.842     -999.25     -999.25     -999.25     -999.25      -1.420       3.378       0.000       2.710
      4708.500      32.955      32.810     155.634       7.888     -999.25     -999.25     -999.25     -999.25      -1.440       3.329      -0.010       2.726
      4709.000      32.890      33.054     153.936       7.865     -999.25     -999.25     -999.25     -999.25      -1.410       3.313      -0.010       2.728
      4709.500      32.318      33.102     147.145       7.877     -999.25     -999.25     -999.25     -999.25      -1.440       3.332      -0.005       2.719
      4710.000      28.389      28.930     139.222       7.865     -999.25     -999.25     -999.25     -999.25      -1.450       3.332      -0.004       2.716
      4710.500      30.440      31.383     141.486       7.945     -999.25     -999.25     -999.25     -999.25      -1.480       3.353       0.001       2.708
      4711.000      33.916      35.897     136.392       7.934     -999.25     -999.25     -999.25     -999.25      -1.490       3.365       0.007       2.699
      4711.500      34.804      38.244     126.488       7.934     -999.25     -999.25     -999.25     -999.25      -1.490       3.396       0.019       2.678
      4712.000      35.394      36.621     124.225       7.911     -999.25     -999.25     -999.25     -999.25      -1.510       3.353       0.018       2.678
      4712.500      34.796      36.634     131.016       7.865     -999.25     -999.25     -999.25     -999.25      -1.490       3.314       0.016       2.683
      4713.000      37.553      38.088     131.016       7.820     -999.25     -999.25     -999.25     -999.25      -1.480       3.261       0.006       2.700
      4713.500      38.309      37.900     134.411       7.820     -999.25     -999.25     -999.25     -999.25      -1.480       3.264      -0.002       2.713
      4714.000      35.011      34.258     131.582       7.786     -999.25     -999.25     -999.25     -999.25      -1.460       3.302      -0.007       2.723
      4714.500      33.015      32.017     138.656       7.774     -999.25     -999.25     -999.25     -999.25      -1.440       3.393      -0.003       2.716
      4715.000      31.765      30.887     129.884       7.774     -999.25     -999.25     -999.25     -999.25      -1.440       3.471       0.013       2.687
      4715.500      33.277      32.058     136.675       7.797     -999.25     -999.25     -999.25     -999.25      -1.430       3.479       0.027       2.663
      4716.000      33.497      32.732     140.637       7.820     -999.25     -999.25     -999.25     -999.25      -1.440       3.432       0.027       2.664
      4716.500      34.334      33.834     140.920       7.820     -999.25     -999.25     -999.25     -999.25      -1.430       3.420       0.016       2.682
      4717.000      32.457      32.596     142.052       7.797     -999.25     -999.25     -999.25     -999.25      -1.440       3.484       0.012       2.690
      4717.500      30.398      30.520     138.656       7.820     -999.25     -999.25     -999.25     -999.25      -1.440       3.568       0.020       2.677
      4718.000      29.422      29.356     125.639       7.820     -999.25     -999.25     -999.25     -999.25      -1.440       3.580       0.023       2.670
      4718.500      30.013      29.723     119.980       7.820     -999.25     -999.25     -999.25     -999.25      -1.430       3.549       0.023       2.671
      4719.000      33.381      31.877     127.337       7.820     -999.25     -999.25     -999.25     -999.25      -1.430       3.490       0.021       2.675
      4719.500      32.064      30.666     156.200       7.842     -999.25     -999.25     -999.25     -999.25      -1.450       3.425       0.024       2.669
      4720.000      28.890      27.822     161.860       7.842     -999.25     -999.25     -999.25     -999.25      -1.430       3.381       0.029       2.660
      4720.500      25.120      24.086     166.953       7.854     -999.25     -999.25     -999.25     -999.25      -1.450       3.424       0.034       2.652
      4721.000      24.974      24.544     161.860       7.865     -999.25     -999.25     -999.25     -999.25      -1.430       3.510       0.028       2.662
      4721.500      24.913      24.908     168.651       7.888     -999.25     -999.25     -999.25     -999.25      -1.450       3.633       0.021       2.674
      4722.000      24.977      25.901     168.651       7.888     -999.25     -999.25     -999.25     -999.25      -1.450       3.687       0.005       2.702
      4722.500      25.010      25.839     168.085       7.888     -999.25     -999.25     -999.25     -999.25      -1.450       3.765      -0.005       2.718
      4723.000      24.292      25.157     168.934       7.877     -999.25     -999.25     -999.25     -999.25      -1.450       3.801      -0.016       2.738
      4723.500      23.763      24.376     177.989       7.888     -999.25     -999.25     -999.25     -999.25      -1.430       3.799      -0.022       2.747
      4724.000      23.896      24.261     181.950       7.877     -999.25     -999.25     -999.25     -999.25      -1.430       3.705      -0.020       2.744
      4724.500      24.988      24.979     170.349       7.911     -999.25     -999.25     -999.25     -999.25      -1.430       3.556      -0.016       2.737
      4725.000      25.946      25.718     167.519       7.877     -999.25     -999.25     -999.25     -999.25      -1.430       3.473      -0.005       2.719
      4725.500      25.711      25.534     169.783       7.888     -999.25     -999.25     -999.25     -999.25      -1.420       3.455       0.002       2.707
      4726.000      25.032      24.885     173.744       7.911     -999.25     -999.25     -999.25     -999.25      -1.420       3.479       0.010       2.693
      4726.500      23.794      23.665     160.728       7.888     -999.25     -999.25     -999.25     -999.25      -1.440       3.459       0.009       2.694
      4727.000      23.405      23.641     166.104       7.888     -999.25     -999.25     -999.25     -999.25      -1.470       3.476       0.007       2.698
      4727.500      23.608      23.791     175.725       7.899     -999.25     -999.25     -999.25     -999.25      -1.490       3.543      -0.004       2.717
      4728.000      22.620      24.321     177.989       7.911     -999.25     -999.25     -999.25     -999.25      -1.460       3.678      -0.012       2.730
      4728.500      22.974      23.240     176.008       7.934     -999.25     -999.25     -999.25     -999.25      -1.470       3.764      -0.015       2.735
