~Version Information
 VERS.                 2.0: 
 WRAP.                  NO: 
 END.                PETRA:GeoPLUS Corporation
~Well Information Block
#MNEM.UNIT       Data Type    Information
#---------    -------------   ---------------------------------
 STRT.F             37.0000:
 STOP.F           7042.5000:
 STEP.F              0.5000:
 NULL.              -999.25:
 COMP.                           : COMPANY
 FLD.       Weston-Jane Lew      : FIELD
 LOC.                            : LOCATION
 DATE.      02-JUL-2014          : DATE
 WELL.      4704105432           : Well Name
 LABL.      4704105432                       : Well Label
 APIN.      4704105432           : API Number
 UWI.       4704105432           : Unique Well Number
 NUMB.      33241                : Well Number
 OPER.      Dominion Exploration & Production : Operator Name
 LEAS.      W G Bennett          : Lease Name
~Parameter Block
#MNEM.UNIT           VALUE            Description
#---------    --------------------   ---------------------------------
 EKB.F                     1.0 : KB Elevation
~Curve Information Block
#MNEM.UNIT      API CODE      Curve Description
#---------    -------------   ---------------------------------
 DEPT.F                   00 000 00 00: Depth (MD)
 AT60.OHMM                00 001 00 00: Array Induction Two Foot Resistivity A60
 AT90.OHMM                00 002 00 00: Array Induction Two Foot Resistivity A90
 GR.GAPI                  00 003 00 00: Description
 HCAL.IN                  00 004 00 00: HRCC Cal. Caliper {F13.4}
 HCGR.GAPI                00 005 00 00: 
 HFK.CFCF                 00 006 00 00: HNGS Formation Potassium Concentration {
 HTHO.PPM                 00 007 00 00: HNGS Formation Thorium Concentration {F1
 HURA.PPM                 00 008 00 00: HNGS Formation Uranium Concentration {F1
 NPHI.CFCF                00 009 00 00: Thermal Neutron Porosity (Ratio Method)
 PEFZ.                    00 010 00 00: HRDD Standard Resolution Formation Photo
 PHID.PERC                00 011 00 00: Density Porosity
 RHOZ.G/C3                00 012 00 00: HRDD Standard Resolution Formation Densi
~A        DEPT        AT60        AT90          GR        HCAL        HCGR         HFK        HTHO        HURA        NPHI        PEFZ        PHID        RHOZ
# ...
      2357.500      23.036      23.157     163.558       7.911     -999.25     -999.25     -999.25     -999.25      -1.470       3.571      -0.008       2.724
      2358.000      22.585      22.522     162.992       7.911     -999.25     -999.25     -999.25     -999.25      -1.480       3.610      -0.005       2.718
      2358.500      22.160      21.779     156.200       7.911     -999.25     -999.25     -999.25     -999.25      -1.490       3.629      -0.003       2.714
      2359.000      21.326      21.153     151.673       7.911     -999.25     -999.25     -999.25     -999.25      -1.470       3.547      -0.010       2.727
      2359.500      20.792      20.558     159.596       7.934     -999.25     -999.25     -999.25     -999.25      -1.470       3.504      -0.013       2.732
      2360.000      19.853      19.750     167.236       7.968     -999.25     -999.25     -999.25     -999.25      -1.470       3.499      -0.017       2.740
      2360.500      19.143      19.117     166.104       8.025     -999.25     -999.25     -999.25     -999.25      -1.500       3.639      -0.007       2.722
      2361.000      18.649      18.729     164.406       8.025     -999.25     -999.25     -999.25     -999.25      -1.500       3.739       0.002       2.707
      2361.500      18.238      18.196     164.406       8.025     -999.25     -999.25     -999.25     -999.25      -1.510       3.746       0.002       2.706
      2362.000      19.679      20.057     163.274       8.002     -999.25     -999.25     -999.25     -999.25      -1.490       3.614      -0.009       2.725
      2362.500      20.563      21.048     171.198       8.025     -999.25     -999.25     -999.25     -999.25      -1.510       3.487      -0.014       2.735
      2363.000      21.420      22.015     171.481       8.047     -999.25     -999.25     -999.25     -999.25      -1.520       3.426      -0.011       2.728
      2363.500      21.505      22.316     169.217       8.002     -999.25     -999.25     -999.25     -999.25      -1.500       3.442       0.000       2.711
      2364.000      21.980      22.622     160.162       8.002     -999.25     -999.25     -999.25     -999.25      -1.470       3.500       0.011       2.692
      2364.500      22.195      22.732     148.277       8.025     -999.25     -999.25     -999.25     -999.25      -1.440       3.538       0.025       2.667
      2365.000      23.326      23.750     121.112       7.934     -999.25     -999.25     -999.25     -999.25      -1.420       3.530       0.021       2.674
      2365.500      25.384      25.347      99.040       7.956     -999.25     -999.25     -999.25     -999.25      -1.490       3.508       0.030       2.659
      2366.000      26.180      26.426      86.590       7.911     -999.25     -999.25     -999.25     -999.25      -1.540       3.492       0.028       2.662
      2366.500      26.703      27.104     100.172       7.934     -999.25     -999.25     -999.25     -999.25      -1.570       3.516       0.038       2.645
      2367.000      25.981      26.682     113.755       7.911     -999.25     -999.25     -999.25     -999.25      -1.540       3.542       0.030       2.659
      2367.500      23.600      24.326     139.222       7.911     -999.25     -999.25     -999.25     -999.25      -1.510       3.564       0.024       2.669
      2368.000      21.343      22.185     145.447       7.922     -999.25     -999.25     -999.25     -999.25      -1.490       3.540       0.018       2.679
      2368.500      21.825      22.738     151.107       7.922     -999.25     -999.25     -999.25     -999.25      -1.460       3.505       0.016       2.683
      2369.000      22.154      23.109     144.316       7.911     -999.25     -999.25     -999.25     -999.25      -1.460       3.478       0.017       2.682
      2369.500      22.931      23.778     156.766       7.956     -999.25     -999.25     -999.25     -999.25      -1.460       3.480       0.020       2.676
      2370.000      23.839      24.816     155.068       7.934     -999.25     -999.25     -999.25     -999.25      -1.470       3.483       0.020       2.676
      2370.500      24.453      25.251     162.426       7.911     -999.25     -999.25     -999.25     -999.25      -1.450       3.478       0.023       2.671
      2371.000      25.368      26.013     155.634       7.888     -999.25     -999.25     -999.25     -999.25      -1.480       3.432       0.021       2.674
      2371.500      25.713      26.278     159.879       7.899     -999.25     -999.25     -999.25     -999.25      -1.480       3.378       0.021       2.675
      2372.000      24.869      25.315     164.972       7.911     -999.25     -999.25     -999.25     -999.25      -1.480       3.361       0.016       2.683
      2372.500      24.315      24.624     162.143       7.911     -999.25     -999.25     -999.25     -999.25      -1.440       3.365       0.010       2.693
      2373.000      24.152      24.465     160.162       7.956     -999.25     -999.25     -999.25     -999.25      -1.460       3.371       0.004       2.704
      2373.500      23.451      24.021     151.390       7.979     -999.25     -999.25     -999.25     -999.25      -1.470       3.357       0.000       2.710
      2374.000      22.452      22.653     160.445       8.002     -999.25     -999.25     -999.25     -999.25      -1.470       3.351       0.006       2.700
      2374.500      20.158      20.697     151.956       7.979     -999.25     -999.25     -999.25     -999.25      -1.440       3.306       0.013       2.687
      2375.000      22.059      22.922     143.184       7.934     -999.25     -999.25     -999.25     -999.25      -1.440       3.280       0.032       2.655
      2375.500      24.675      25.258     125.640       7.956     -999.25     -999.25     -999.25     -999.25      -1.490       3.231       0.041       2.641
      2376.000      24.906      25.855     132.714       7.911     -999.25     -999.25     -999.25     -999.25      -1.490       3.244       0.039       2.643
      2376.500      23.517      24.049     138.373       7.956     -999.25     -999.25     -999.25     -999.25      -1.510       3.267       0.022       2.673
      2377.000      22.482      23.058     144.033       7.922     -999.25     -999.25     -999.25     -999.25      -1.500       3.378       0.019       2.678
      2377.500      24.065      24.630     138.090       7.911     -999.25     -999.25     -999.25     -999.25      -1.490       3.447       0.017       2.681
      2378.000      24.944      25.315     138.090       7.922     -999.25     -999.25     -999.25     -999.25      -1.500       3.443       0.016       2.682
      2378.500      27.748      27.956     143.184       7.911     -999.25     -999.25     -999.25     -999.25      -1.510       3.417       0.019       2.677
      2379.000      28.277      28.270     146.013       7.911     -999.25     -999.25     -999.25     -999.25      -1.560       3.406       0.029       2.661
      2379.500      24.920      25.263     175.442       7.934     -999.25     -999.25     -999.25     -999.25      -1.530       3.431       0.030       2.659
      2380.000      23.070      23.696     190.723       7.911     -999.25     -999.25     -999.25     -999.25      -1.470       3.498       0.018       2.679
      2380.500      20.232      21.258     203.173       7.934     -999.25     -999.25     -999.25     -999.25      -1.420       3.554      -0.003       2.716
      2381.000      19.448      21.439     180.536       7.922     -999.25     -999.25     -999.25     -999.25      -1.430       3.573      -0.012       2.731
      2381.500      20.822      22.541     178.555       7.934     -999.25     -999.25     -999.25     -999.25      -1.450       3.505      -0.015       2.736
      2382.000      21.057      22.601     174.027       7.934     -999.25     -999.25     -999.25     -999.25      -1.450       3.421      -0.013       2.732
      2382.500      21.298      21.719     166.104       7.956     -999.25     -999.25     -999.25     -999.25      -1.460       3.412      -0.008       2.724
