~Version Information
 VERS.                 2.0: 
 WRAP.                  NO: 
 END.                PETRA:GeoPLUS Corporation
~Well Information Block
#MNEM.UNIT       Data Type    Information
#---------    -------------   ---------------------------------
 STRT.F             37.0000:
 STOP.F           7042.5000:
 STEP.F              0.5000:
 NULL.              -999.25:
 COMP.                           : COMPANY
 FLD.       Weston-Jane Lew      : FIELD
 LOC.                            : LOCATION
 DATE.      02-JUL-2014          : DATE
 WELL.      4704105432           : Well Name
 LABL.      4704105432                       : Well Label
 APIN.      4704105432           : API Number
 UWI.       4704105432           : Unique Well Number
 NUMB.      33241                : Well Number
 OPER.      Dominion Exploration & Production : Operator Name
 LEAS.      W G Bennett          : Lease Name
~Parameter Block
#MNEM.UNIT           VALUE            Description
#---------    --------------------   ---------------------------------
 EKB.F                     1.0 : KB Elevation
~Curve Information Block
#MNEM.UNIT      API CODE      Curve Description
#---------    -------------   ---------------------------------
 DEPT.F                   00 000 00 00: Depth (MD)
 AT60.OHMM                00 001 00 00: Array Induction Two Foot Resistivity A60
 AT90.OHMM                00 002 00 00: Array Induction Two Foot Resistivity A90
 GR.GAPI                  00 003 00 00: Description
 HCAL.IN                  00 004 00 00: HRCC Cal. Caliper {F13.4}
 HCGR.GAPI                00 005 00 00: 
 HFK.CFCF                 00 006 00 00: HNGS Formation Potassium Concentration {
 HTHO.PPM                 00 007 00 00: HNGS Formation Thorium Concentration {F1
 HURA.PPM                 00 008 00 00: HNGS Formation Uranium Concentration {F1
 NPHI.CFCF                00 009 00 00: Thermal Neutron Porosity (Ratio Method)
 PEFZ.                    00 010 00 00: HRDD Standard Resolution Formation Photo
 PHID.PERC                00 011 00 00: Density Porosity
 RHOZ.G/C3                00 012 00 00: HRDD Standard Resolution Formation Densi
~A        DEPT        AT60        AT90          GR        HCAL        HCGR         HFK        HTHO        HURA        NPHI        PEFZ        PHID        RHOZ
# ...
      3301.000      29.066      25.999     148.277       7.956     -999.25     -999.25     -999.25     -999.25      -1.470       3.336       0.018       2.679
      3301.500      29.265      29.057     139.788       7.956     -999.25     -999.25     -999.25     -999.25      -1.480       3.431       0.023       2.671
      3302.000      30.020      31.246     121.112       7.934     -999.25     -999.25     -999.25     -999.25      -1.500       3.506       0.026       2.665
      3302.500      33.134      37.951     113.755       7.956     -999.25     -999.25     -999.25     -999.25      -1.510       3.524       0.019       2.677
      3303.000      37.648      43.275     111.491       7.956     -999.25     -999.25     -999.25     -999.25      -1.530       3.497       0.011       2.691
      3303.500      28.855      31.341     121.678       7.956     -999.25     -999.25     -999.25     -999.25      -1.500       3.439       0.008       2.697
      3304.000      23.293      24.601     126.205       7.934     -999.25     -999.25     -999.25     -999.25      -1.470       3.378       0.009       2.694
      3304.500      23.174      23.612     129.035       7.956     -999.25     -999.25     -999.25     -999.25      -1.440       3.381       0.013       2.688
      3305.000      23.985      23.819     122.810       7.956     -999.25     -999.25     -999.25     -999.25      -1.450       3.421       0.012       2.689
      3305.500      26.185      25.664     122.244       7.956     -999.25     -999.25     -999.25     -999.25      -1.470       3.459       0.013       2.688
      3306.000      25.298      24.568     125.356       7.979     -999.25     -999.25     -999.25     -999.25      -1.500       3.466       0.015       2.685
      3306.500      22.303      21.058     132.714       8.002     -999.25     -999.25     -999.25     -999.25      -1.520       3.443       0.019       2.677
      3307.000      21.136      20.801     145.164       8.013     -999.25     -999.25     -999.25     -999.25      -1.520       3.452       0.023       2.671
      3307.500      20.103      19.764     149.975       8.070     -999.25     -999.25     -999.25     -999.25      -1.520       3.460       0.015       2.685
      3308.000      20.382      20.291     149.975       8.047     -999.25     -999.25     -999.25     -999.25      -1.490       3.469       0.001       2.708
      3308.500      18.272      17.996     147.711       8.070     -999.25     -999.25     -999.25     -999.25      -1.510       3.472      -0.009       2.726
      3309.000      16.912      16.983     146.013       8.082     -999.25     -999.25     -999.25     -999.25      -1.510       3.479      -0.013       2.733
      3309.500      16.205      15.793     161.860       8.059     -999.25     -999.25     -999.25     -999.25      -1.500       3.481      -0.015       2.736
      3310.000      15.695      15.625     171.481       8.093     -999.25     -999.25     -999.25     -999.25      -1.500       3.532      -0.009       2.725
      3310.500      16.053      15.916     187.327       8.082     -999.25     -999.25     -999.25     -999.25      -1.490       3.509      -0.012       2.731
      3311.000      16.950      17.168     181.384       8.082     -999.25     -999.25     -999.25     -999.25      -1.490       3.498      -0.010       2.727
      3311.500      18.403      18.416     191.571       8.070     -999.25     -999.25     -999.25     -999.25      -1.470       3.473      -0.007       2.721
      3312.000      17.821      18.054     184.214       8.047     -999.25     -999.25     -999.25     -999.25      -1.460       3.498       0.002       2.707
      3312.500      17.030      17.315     180.536       8.082     -999.25     -999.25     -999.25     -999.25      -1.460       3.558       0.013       2.688
      3313.000      17.749      18.253     164.123       8.093     -999.25     -999.25     -999.25     -999.25      -1.490       3.521       0.004       2.703
      3313.500      20.470      21.317     153.370       8.093     -999.25     -999.25     -999.25     -999.25      -1.490       3.513       0.003       2.706
      3314.000      21.296      23.724     153.370       8.070     -999.25     -999.25     -999.25     -999.25      -1.480       3.525       0.005       2.701
      3314.500      24.318      25.532     141.486       8.070     -999.25     -999.25     -999.25     -999.25      -1.490       3.573       0.014       2.686
      3315.000      26.988      27.671     143.749       8.059     -999.25     -999.25     -999.25     -999.25      -1.510       3.589       0.015       2.684
      3315.500      28.346      28.108     133.845       8.025     -999.25     -999.25     -999.25     -999.25      -1.510       3.551       0.004       2.703
      3316.000      23.886      23.703     143.467       8.025     -999.25     -999.25     -999.25     -999.25      -1.520       3.531      -0.005       2.719
      3316.500      21.419      21.153     153.653       8.047     -999.25     -999.25     -999.25     -999.25      -1.510       3.544      -0.006       2.720
      3317.000      20.377      20.444     160.162       8.047     -999.25     -999.25     -999.25     -999.25      -1.520       3.528      -0.003       2.715
      3317.500      19.169      19.201     167.519       8.093     -999.25     -999.25     -999.25     -999.25      -1.530       3.502       0.005       2.702
      3318.000      18.682      18.745     162.991       8.093     -999.25     -999.25     -999.25     -999.25      -1.540       3.471       0.005       2.702
      3318.500      18.361      17.975     161.294       8.104     -999.25     -999.25     -999.25     -999.25      -1.530       3.499       0.005       2.701
      3319.000      18.056      17.808     156.766       8.093     -999.25     -999.25     -999.25     -999.25      -1.510       3.578       0.009       2.695
      3319.500      18.479      17.783     148.277       8.093     -999.25     -999.25     -999.25     -999.25      -1.500       3.624       0.014       2.686
      3320.000      21.404      20.788     144.315       8.047     -999.25     -999.25     -999.25     -999.25      -1.510       3.606       0.015       2.684
      3320.500      25.175      25.017     140.920       8.093     -999.25     -999.25     -999.25     -999.25      -1.540       3.525       0.010       2.692
      3321.000      23.062      23.219     146.013       8.002     -999.25     -999.25     -999.25     -999.25      -1.530       3.485       0.009       2.695
      3321.500      21.297      21.610     147.145       8.002     -999.25     -999.25     -999.25     -999.25      -1.510       3.461       0.009       2.695
      3322.000      18.732      19.574     158.464       8.002     -999.25     -999.25     -999.25     -999.25      -1.510       3.494       0.010       2.693
      3322.500      17.829      18.524     166.387       8.070     -999.25     -999.25     -999.25     -999.25      -1.490       3.535       0.012       2.690
      3323.000      21.698      22.892     193.269       8.070     -999.25     -999.25     -999.25     -999.25      -1.480       3.554       0.018       2.679
      3323.500      26.781      27.830     179.121       8.093     -999.25     -999.25     -999.25     -999.25      -1.490       3.481       0.026       2.666
      3324.000      31.028      32.386     161.577       8.059     -999.25     -999.25     -999.25     -999.25      -1.530       3.374       0.031       2.656
      3324.500      30.302      31.473     136.392       8.025     -999.25     -999.25     -999.25     -999.25      -1.530       3.334       0.036       2.649
      3325.000      27.878      28.621     127.620       8.047     -999.25     -999.25     -999.25     -999.25      -1.530       3.352       0.040       2.642
      3325.500      29.553      29.890     122.527       8.070     -999.25     -999.25     -999.25     -999.25      -1.530       3.326       0.037       2.647
      3326.000      30.294      30.018     123.659       8.002     -999.25     -999.25     -999.25     -999.25      -1.500       3.258       0.029       2.660
